Seccion,Manzana,Parcela,SMP,Expediente,Nomenclacion par,Fecha de registro,Direccion,Comuna 1,Codigo postal,Codigo postal argentino,Tipo obra,Superficie (m2),Direccion normalizada,Lon,Lat,Calle,Altura,Barrio,Comuna
083,118,021,083-118-021,12580708/18,1-15-83-118-21,2019-03-14,,,,,Obra Menor,124.55,,,,,,,
 , , , - - ,57323/17,,2018-06-05,LIBERTADOR 5956/60,Comuna 13,1428,C1428ARP,Obra Mayor,3740.93,DEL LIBERTADOR AV. 5956,-58.447468415435196,-34.55713944203949,DEL LIBERTADOR AV.,5956,Belgrano,13
047,174,016a,047-174-016a,26140424/17,15-47-174-16a,2017-11-21,.CORRIENRES 5448/52,Comuna 15,1414,C1414AJU,Obra Mayor,8467.87,CORRIENTES AV. 5448,-58.44124733988181,-34.5977230970322,CORRIENTES AV.,5448,Villa Crespo,15
027,071,013d,027-071-013d,15896369/18,16-27-71-13d,2018-11-28,11 DE SEPT. 2841/55,Comuna 13,1429,C1429BIA,Obra Mayor,6059,11 DE SEPTIEMBRE DE 1888 2841,-58.4567461882739,-34.5518791820409,11 DE SEPTIEMBRE DE 1888,2841,Nuñez,13
 , , , - - ,9429862/18,,2018-06-19,11 DE SEPT. 2866/70,Comuna 13,1429,C1429BIB,Obra Media,1905.2,11 DE SEPTIEMBRE DE 1888 2866,-58.4570760821802,-34.5516254456303,11 DE SEPTIEMBRE DE 1888,2866,Nuñez,13
029,84A,001,029-84A-001,22333384/16,16-29-84A-1,2017-10-11,11 DE SEPT. 4148,Comuna 13,1429,C1429BJB,Obra Menor,394.67,11 DE SEPTIEMBRE DE 1888 4148,-58.464431852687206,-34.5415847787856,11 DE SEPTIEMBRE DE 1888,4148,Nuñez,13
027,061,029,027-061-029,12277222/18,16-27-61-29,2018-10-19,11 DE SEPT.2930,Comuna 13,1429,C1429BID,Obra Media,1380.12,11 DE SEPTIEMBRE DE 1888 2930,-58.4576001638011,-34.5509027334262,11 DE SEPTIEMBRE DE 1888,2930,Nuñez,13
029,079,022,029-079-022,17214415/15,16-29-79-22,2017-12-22,11 DE SEPT.3622,Comuna 13,1429,C1429BIR,Obra Media,627.4,11 DE SEPTIEMBRE DE 1888 3622,-58.46164148936621,-34.5453448854184,11 DE SEPTIEMBRE DE 1888,3622,Nuñez,13
029,84b,021,029-84b-021,34915804/18,16-29-84b-21,2019-05-21,11 DE SEPT.4176,Comuna 13,1429,C1429BJB,Obra Menor,260.72,11 DE SEPTIEMBRE DE 1888 4176,-58.4645743016327,-34.54139056117409,11 DE SEPTIEMBRE DE 1888,4176,Nuñez,13
029,82A,12,029-82A-12,23557479/17,"16-29-82A-12,13,14",2018-07-13,11 DE SEPTIEM.3966/74,Comuna 13,1429,C1429BIX,Obra Media,2381.05,11 DE SEPTIEMBRE DE 1888 3966,-58.4633354483829,-34.543064400625504,11 DE SEPTIEMBRE DE 1888,3966,Nuñez,13
029,82A,13,029-82A-13,23557479/17,"16-29-82A-12,13,14",2018-07-13,11 DE SEPTIEM.3966/74,Comuna 13,1429,C1429BIX,Obra Media,2381.05,11 DE SEPTIEMBRE DE 1888 3966,-58.4633354483829,-34.543064400625504,11 DE SEPTIEMBRE DE 1888,3966,Nuñez,13
029,82A,14,029-82A-14,23557479/17,"16-29-82A-12,13,14",2018-07-13,11 DE SEPTIEM.3966/74,Comuna 13,1429,C1429BIX,Obra Media,2381.05,11 DE SEPTIEMBRE DE 1888 3966,-58.4633354483829,-34.543064400625504,11 DE SEPTIEMBRE DE 1888,3966,Nuñez,13
027,072,011,027-072-011,18781034/18,16-27-72-11,2019-05-21,11 DE SEPTIEMBRE 2951/57,Comuna 13,1429,C1429BIC,Obra Media,1024.32,11 DE SEPTIEMBRE DE 1888 2951,-58.4575973969068,-34.55072299260569,11 DE SEPTIEMBRE DE 1888,2951,Nuñez,13
027,075,009a,027-075-009a,19346833/18,16-27-75-009A,2019-03-11,11 DE SEPTIEMBRE 3201/05,Comuna 13,1429,C1429BII,Micro Obra,22.05,11 DE SEPTIEMBRE DE 1888 3201,-58.4591716312761,-34.5485894132089,11 DE SEPTIEMBRE DE 1888,3201,Nuñez,13
 , , , - - ,16944400/17,,2018-04-19,11 DE SEPTIEMBRE 4588,Comuna 13,1429,C1429BJJ,Obra Media,1191.54,11 DE SEPTIEMBRE DE 1888 4588,-58.4668225214805,-34.5383494543601,11 DE SEPTIEMBRE DE 1888,4588,Nuñez,13
059,046,014,059-046-014,9586860/16,15-59-46-14,2017-10-03,12 DE OCTUBRE 1850,Comuna 15,1416,C1416FIF,Obra Media,1675.78,12 DE OCTUBRE 1850,-58.4703292771144,-34.6022645347003,12 DE OCTUBRE,1850,Paternal,15
059,046,016,059-046-016,20953848/17,15-59-046-16,2017-11-01,12 DE OCTUBRE 1870,Comuna 15,1416,C1416FIF,Obra Menor,158.21,12 DE OCTUBRE 1870,-58.47034241760061,-34.6024124554638,12 DE OCTUBRE,1870,Paternal,15
049,133,025,049-133-025,13695290/18,15-49-133-25,2018-10-31,14 DE JULIO 760,Comuna 15,1427,C1427CJP,Obra Mayor,3266.91,14 DE JULIO 760,-58.4620762895566,-34.5845870924028,14 DE JULIO,760,Villa Ortuzar,15
049,134,011,049-134-011,12279250/18,15-49-134-11,2019-01-03,14 DE JULIO 882,Comuna 15,1427,C1427CJR,Obra Menor,253.23,14 DE JULIO 882,-58.4620164541058,-34.583205477583796,14 DE JULIO,882,Villa Ortuzar,15
024,066,024,024-066-024,18113147/18,2-24-66-24,2018-10-12,15 DE NOVIEMBRE 2573,Comuna 4,1261,C1261AAO,Micro Obra,,15 DE NOVIEMBRE DE 1889 2573,-58.399305569907895,-34.633581223589694,15 DE NOVIEMBRE DE 1889,2573,Parque Patricios,4
030,042,016,030-042-016,13113507/18,8-30-42-16,2019-04-04,24 DE NOVIEMB.1564,Comuna 3,1242,C1242AAH,Obra Media,1165.1,24 DE NOVIEMBRE 1564,-58.4098567840029,-34.62940227503011,24 DE NOVIEMBRE,1564,San Cristobal,3
030,049,012,030-049-012,26838819/16,8-30-49-12,2017-09-22,24 DE NOVIEMBRE 1262,Comuna 3,1242,C1242AAB,Obra Media,1081.12,24 DE NOVIEMBRE 1262,-58.4102116118192,-34.6257362406298,24 DE NOVIEMBRE,1262,San Cristobal,3
 , , , - - ,29818306/17,,2018-04-18,24 DE NOVIEMBRE 1652,Comuna 4,1242,C1242AAJ,Obra Menor,415.9,24 DE NOVIEMBRE 1652,-58.4097516946795,-34.630541898660304,24 DE NOVIEMBRE,1652,Parque Patricios,4
 , , , - - ,23833998/17,,2018-02-21,24 DE NOVIEMBRE 759,Comuna 3,1224,C1224AAE,Obra Media,2099.98,24 DE NOVIEMBRE 759,-58.4109576395268,-34.6197697620785,24 DE NOVIEMBRE,759,Balvanera,3
023,025,016,023-025-016,21191302/17,17-23-25-16,2018-07-23,3 DE FEBRERO 1131/33,Comuna 14,1426,C1426BJI,Obra Media,1542.41,3 DE FEBRERO 1131,-58.4439362783888,-34.568583823809995,3 DE FEBRERO,1131,Palermo,14
027,060,14a,027-060-14a,18166688/14,16-27-60-14a/14b,2017-12-13,3 DE FEBRERO 2841/53,Comuna 13,1429,C1429BFA,Obra Mayor,7203.76,3 DE FEBRERO 2841,-58.457721105618106,-34.552297336291296,3 DE FEBRERO,2841,Nuñez,13
027,060,14b,027-060-14b,18166688/14,16-27-60-14a/14b,2017-12-13,3 DE FEBRERO 2841/53,Comuna 13,1429,C1429BFA,Obra Mayor,7203.76,3 DE FEBRERO 2841,-58.457721105618106,-34.552297336291296,3 DE FEBRERO,2841,Nuñez,13
 , , , - - ,29876193/17,,2018-04-03,3 DE FEBRERO 2936,Comuna 13,1429,C1429BFD,Obra Media,1604.3,3 DE FEBRERO 2936,-58.458510610629,-34.551369117034,3 DE FEBRERO,2936,Nuñez,13
 , , , - - ,28896008/17,,2018-01-03,3 DE FEBRERO 3331,Comuna 13,1429,C1429BFK,Obra Media,694.74,3 DE FEBRERO 3331,-58.460798365513,-34.54810969086889,3 DE FEBRERO,3331,Nuñez,13
 , , , - - ,17261782/17,,2018-05-17,3 DE FEBRERO 4074/76,Comuna 13,1429,C1429BFZ,Obra Media,963.15,3 DE FEBRERO 4074,-58.4649389970858,-34.542627826196,3 DE FEBRERO,4074,Nuñez,13
 , , , - - ,29266132/17,,2018-03-12,3 DE FEBRERO 4169,Comuna 13,1429,C1429BGA,Obra Menor,488.88,3 DE FEBRERO 4169,-58.4654257886868,-34.5418193942987,3 DE FEBRERO,4169,Nuñez,13
029,085,012,029-085-012,4350046/16,16-29-85-12,2017-10-26,3 DE FEBRERO 4255,Comuna 13,1429,C1429BGC,Obra Media,902.5,3 DE FEBRERO 4255,-58.4659087147597,-34.541170337337306,3 DE FEBRERO,4255,Nuñez,13
023,017,009,023-017-009,10448323/17,23-17-9,2017-10-03,3 DE FEBRERO 990,Comuna 14,1426,C1426BJF,Obra Media,1349.48,3 DE FEBRERO 990,-58.4427891572948,-34.5694944021316,3 DE FEBRERO,990,Palermo,14
038,164,023,038-164-023,24259036/16,01-38-164-23,2017-10-23,33 ORIENTALES 1923,Comuna 5,1257,C1257ACS,Obra Menor,266.26,TREINTA Y TRES ORIENTALES 1923,-58.420823980707205,-34.6361531564993,TREINTA Y TRES ORIENTALES,1923,Boedo,5
036,058,011f,036-058-011f,11441752/18,6-36-58-11f,2018-07-31,33 ORIENTALES 524,Comuna 5,1236,C1236ACD,Obra Media,933.07,TREINTA Y TRES ORIENTALES 524,-58.4242101280642,-34.6193305325577,TREINTA Y TRES ORIENTALES,524,Almagro,5
036,053,012,036-053-012,24947518/17,6-36-053-012,2017-12-06,33 ORIENTALES 920,Comuna 5,1236,C1236ACL,Obra Menor,222.88,TREINTA Y TRES ORIENTALES 920,-58.423074407260295,-34.6252201319574,TREINTA Y TRES ORIENTALES,920,Boedo,5
020,003,16ABC17,020-003-16ABC17,3306957/18,20-03-16ABC17/18,2018-11-29,9 DE JULIO,,,,Obra Media,572.12,9 DE JULIO AV.,,,9 DE JULIO AV.,,,
020,003,18,020-003-18,3306957/18,20-03-16ABC17/18,2018-11-29,9 DE JULIO,,,,Obra Media,572.12,9 DE JULIO AV.,,,9 DE JULIO AV.,,,
069,077,025,069-077-025,30348622/18,15-69-77-25,2019-01-28,A. BUFANO 2469,Comuna 11,1416,C1416AJY,Obra Menor,303.16,"BUFANO, ALFREDO R. 2469",-58.4776731031605,-34.6046726976685,"BUFANO, ALFREDO R.",2469,Villa Del Parque,11
 , , , - - ,14370866/17,,2018-01-25,A. FIGUEROA 1726,Comuna 14,1180,C1180ABH,Obra Media,738.7,"ACUÑA DE FIGUEROA, FRANCISCO 1726",-58.4204695569166,-34.5911962450979,"ACUÑA DE FIGUEROA, FRANCISCO",1726,Palermo,14
069,008,016,069-008-016,32028479/18,15-69-008-016,2019-05-17,A. JONTE 3089,Comuna 11,1416,C1416EYC,Obra Media,711.49,ALVAREZ JONTE AV. 3089,-58.4862621415519,-34.609511882894694,ALVAREZ JONTE AV.,3089,Villa Del Parque,11
091,056,014,091-056-014,26878055/18,15-91-056-14,2019-01-02,A. M. CERVANTES 5210,Comuna 10,1407,C1407MLN,Obra Menor,140.74,"MAGARIÑOS CERVANTES, A. 5210",-58.5054044285686,-34.6308294889013,"MAGARIÑOS CERVANTES, A.",5210,Villa Luro,10
045,078,016,045-078-016,36694238/15,7-45-78-16,2019-05-17,A. MACHADO 615,Comuna 6,1405,C1405DIC,Obra Menor,168.75,"MACHADO, ANTONIO 615",-58.4405032785556,-34.6064472749158,"MACHADO, ANTONIO",615,Caballito,6
037,021,004,037-021-004,13778658/18,17-37-21-4,2019-02-22,A. THOMAS 1244,Comuna 15,1427,C1427CCZ,Obra Media,2350.6,ALVAREZ THOMAS AV. 1244,-58.4590562101507,-34.5784543008153,ALVAREZ THOMAS AV.,1244,Chacarita,15
083,132,003,083-132-003,8753311/18,15-83-132-3,2018-07-31,A.A.LOPEZ 3714/16,Comuna 11,1419,C1419EUH,Obra Media,530.6,"LOPEZ, CARLOS ANTONIO 3714",-58.513813186986596,-34.59214987875511,"LOPEZ, CARLOS ANTONIO",3714,Villa Devoto,11
026,014,000,026-014-000,17581436/17,02-26-14-00,2017-10-03,A.ALCORTA 2602/36,Comuna 4,1437,C1437HTO,Obra Mayor,2874,"ALCORTA, AMANCIO AV. 2602",-58.39920173250901,-34.644138538263995,"ALCORTA, AMANCIO AV.",2602,Parque Patricios,4
075,128,018,075-128-018,19552804/18,16-75-128-18,2018-08-22,A.ALVAREZ 5122,,,,Obra Menor,375.31,,,,,,,
003,074C,000,003-074C-000,25219107/17,020-003-074C-000,2018-09-12,A.ARGENTINA 1475,Comuna 1,1104,C1104ACB,Obra Media,586.51,ANTARTIDA ARGENTINA AV. 1475,-58.373120866425,-34.5827394951743,ANTARTIDA ARGENTINA AV.,1475,Retiro,1
065,095,026,065-095-026,11021901/17,5-65-95-26,2017-09-13,A.BUFANO 1084,Comuna 7,1406,C1406AXH,Micro Obra,16.9,"BUFANO, ALFREDO R. 1084",-58.467531113521396,-34.6182447123886,"BUFANO, ALFREDO R.",1084,Flores,7
065,098,016a,065-098-016a,16037614/16,5-65-98-16A,2017-12-04,A.BUFANO 1125/27,Comuna 7,1406,C1406AXI,Obra Media,857.3,"BUFANO, ALFREDO R. 1125",-58.4677062735341,-34.6176302777327,"BUFANO, ALFREDO R.",1125,Flores,7
067,084,034,067-084-034,9051152/17,15-67-84-34,2018-11-28,A.BUFANO 1272/74,Comuna 11,1416,C1416AJB,Obra Media,873.92,"BUFANO, ALFREDO R. 1272",-58.46856728404679,-34.6165542515982,"BUFANO, ALFREDO R.",1272,Villa Gral. Mitre,11
033,084,048,033-084-048,26345534/16,17-33-84-48,2017-10-02,A.CABRERA 5950/54,Comuna 14,1414,C1414BHL,Obra Media,1680.81,"CABRERA, JOSE A. 5950",-58.4418535428522,-34.5830263210807,"CABRERA, JOSE A.",5950,Palermo,14
 , , , - - ,29762057/17,,2018-06-13,A.CARRANZA 1530,Comuna 14,1414,C1414COP,Obra Menor,151.27,"CARRANZA, ANGEL JUSTINIANO 1530",-58.439962866312285,-34.5838766198623,"CARRANZA, ANGEL JUSTINIANO",1530,Palermo,14
 , , , - - ,28889293/17,,2018-05-15,A.CARRANZA 2951,Comuna 11,1417,C1417HFM,Obra Media,2060.59,"CARRANZA, ADOLFO P. 2951",-58.4851038182741,-34.6081096046764,"CARRANZA, ADOLFO P.",2951,Villa Del Parque,11
 , , , - - ,14199720/18,,2018-06-04,A.CARRANZA 3179,Comuna 11,1417,C1417HFQ,Obra Media,1851.96,"CARRANZA, ADOLFO P. 3179",-58.487692287021,-34.609529727681306,"CARRANZA, ADOLFO P.",3179,Villa Del Parque,11
 , , , - - ,6276060/14,,2018-06-26,A.DE FIGUEROA 1332,Comuna 14,1180,C1180AAZ,Obra Mayor,2607.45,"ACUÑA DE FIGUEROA, FRANCISCO 1332",-58.4214969791228,-34.59603277288781,"ACUÑA DE FIGUEROA, FRANCISCO",1332,Palermo,14
019,007,014,019-007-014,22955490/15,18-19-7-14,2018-09-13,A.DE FIGUEROA 1355/57,Comuna 14,1180,C1180AAY,Obra Media,1882.89,"ACUÑA DE FIGUEROA, FRANCISCO 1355",-58.4213211798893,-34.5957598877196,"ACUÑA DE FIGUEROA, FRANCISCO",1355,Palermo,14
019,042,015,019-042-015,24072002/18,18-19-42-15,2018-11-13,A.DE FIGUEROA 1587/89,Comuna 14,1180,C1180ABC,Obra Media,1529.94,"ACUÑA DE FIGUEROA, FRANCISCO 1587",-58.4207858121465,-34.5931006799156,"ACUÑA DE FIGUEROA, FRANCISCO",1587,Palermo,14
 , , , - - ,27894778/17,,2018-03-08,A.DE FIGUEROA 1664,Comuna 14,1180,C1180ABF,Obra Media,999.83,"ACUÑA DE FIGUEROA, FRANCISCO 1664",-58.4207052071628,-34.59208744791291,"ACUÑA DE FIGUEROA, FRANCISCO",1664,Palermo,14
007,017,069.044,007-017-069.044,30100542/17,7-017-069.044,2018-10-10,A.DE FIGUEROA 436/38,Comuna 5,1180,C1180AAH,Obra Media,1283.02,"ACUÑA DE FIGUEROA, FRANCISCO 436",-58.422855203591006,-34.6054813228687,"ACUÑA DE FIGUEROA, FRANCISCO",436,Almagro,5
017,079,013,017-079-013,23280871/18,7-17-79-13,2018-10-31,A.DE FIGUEROA 455/59,Comuna 5,1180,C1180AAG,Obra Media,1529.36,"ACUÑA DE FIGUEROA, FRANCISCO 455",-58.4227637709045,-34.6052523615026,"ACUÑA DE FIGUEROA, FRANCISCO",455,Almagro,5
044,087,15,044-087-15,17515395/16,1-44-87-15/16,2017-11-30,A.DIAZ 2080/100,Comuna 7,1406,C1406IBP,Obra Media,1302.09,"DIAZ, AVELINO 2080",-58.446910698529386,-34.6403515444511,"DIAZ, AVELINO",2080,Parque Chacabuco,7
044,087,16,044-087-16,17515395/16,1-44-87-15/16,2017-11-30,A.DIAZ 2080/100,Comuna 7,1406,C1406IBP,Obra Media,1302.09,"DIAZ, AVELINO 2080",-58.446910698529386,-34.6403515444511,"DIAZ, AVELINO",2080,Parque Chacabuco,7
044,056,013,044-056-013,3196412/16,1-44-56-13,2019-03-11,A.DIAZ 2254/58,Comuna 7,1406,C1406IBT,Obra Menor,500,"DIAZ, AVELINO 2254",-58.44864012268111,-34.6419003194505,"DIAZ, AVELINO",2254,Flores,7
059,108,018a,059-108-018a,14767328/18,15-59-108-18a,2018-11-15,A.DICKMAN 981/99,Comuna 15,1416,C1416EHA,Micro Obra,,"DICKMAN, ADOLFO, DR. 981",-58.4625611559484,-34.5971182016216,"DICKMAN, ADOLFO, DR.",981,Paternal,15
040,17A,017,040-17A-017,17827856/18,6-40-17A-17,2018-09-27,A.FERRARI 957,Comuna 6,1424,C1424BTA,Obra Menor,183.28,"FERRARI, ANTONINO M. 957",-58.4410712982358,-34.6257213503916,"FERRARI, ANTONINO M.",957,Caballito,6
032,010,019b,032-010-019b,16028236/18,02-32-10-19b,2019-04-10,A.FERREIRA 3749,Comuna 4,1437,C1437ITE,Obra Media,1840.76,"FERREYRA, ANDRES 3749",-58.4144705675761,-34.6445314896212,"FERREYRA, ANDRES",3749,Nueva Pompeya,4
032,009,007,032-009-007,13710113/18,2-32-009-007,2019-05-13,A.FERREYRA 3754/56,Comuna 4,1437,C1437ITF,Obra Menor,408.87,"FERREYRA, ANDRES 3754",-58.4148210042521,-34.6445535826109,"FERREYRA, ANDRES",3754,Nueva Pompeya,4
059,033,007,059-033-007,14618870/18,15-59-33-7,2018-09-27,A.FIGUEROA 1852,Comuna 11,1416,C1416DQD,Obra Menor,200.79,"FIGUEROA, D. APOLINARIO, CORONEL 1852",-58.4618517574335,-34.613658527302796,"FIGUEROA, D. APOLINARIO, CORONEL",1852,Villa Gral. Mitre,11
059,017,015,059-017-015,25676604/17,15-59-17-15,2018-07-30,A.FIGUEROA 1947,Comuna 11,1416,C1416DQE,Obra Media,983.31,"FIGUEROA, D. APOLINARIO, CORONEL 1947",-58.462936290198094,-34.6140587833166,"FIGUEROA, D. APOLINARIO, CORONEL",1947,Villa Gral. Mitre,11
060,052,026,060-052-026,21735137/16,1-60-52-26,2017-11-01,A.G.CHAVES 270,Comuna 9,1408,C1408HNB,Obra Menor,184.42,"GONZALES CHAVES, ADOLFO 270",-58.5087631378467,-34.6414433901232,"GONZALES CHAVES, ADOLFO",270,Liniers,9
 , , , - - ,26045812/16,,2018-05-02,A.GALLARDO 608,Comuna 6,1405,C1405DJT,Obra Media,1650.63,"GALLARDO, ANGEL AV. 608",-58.43945965820389,-34.6057442693212,"GALLARDO, ANGEL AV.",608,Caballito,6
045,065,001b,045-065-001b,17081116/17,7-45-65-1b,2017-10-19,A.GALLARDO 906/32,Comuna 6,1405,C1405DJW,Obra Mayor,7655.04,"GALLARDO, ANGEL AV. 906",-58.4433344426552,-34.6067975143906,"GALLARDO, ANGEL AV.",906,Caballito,6
035,018,015,035-018-015,13157338/16,17-35-18-15,2017-12-29,A.J.CARRANZA 1665/67,Comuna 14,1414,C1414COQ,Obra Menor,406.8,"CARRANZA, ANGEL JUSTINIANO 1665",-58.438646358177394,-34.5828682628823,"CARRANZA, ANGEL JUSTINIANO",1665,Palermo,14
035,060,018,035-060-018,4876133/18,17-35-60-18,2018-08-03,A.J.CARRANZA 1941//45,Comuna 14,1414,C1414COW,Obra Media,896.26,"CARRANZA, ANGEL JUSTINIANO 1941",-58.4361665169476,-34.5807021303602,"CARRANZA, ANGEL JUSTINIANO",1941,Palermo,14
 , , , - - ,25599747/17,,2018-03-13,A.J.SUCRE 2775/83,Comuna 13,1428,C1428DVW,Obra Media,1859.18,"SUCRE, ANTONIO JOSE DE, MCAL. 2775",-58.4585066762638,-34.5659159993294,"SUCRE, ANTONIO JOSE DE, MCAL.",2775,Belgrano,13
045,097,004,045-097-004,21076129/17,007-045-097-004,2017-11-30,A.JAURETCHE 262,Comuna 6,1405,C1405CUF,Obra Menor,127.27,"JAURETCHE, ARTURO 262",-58.437197324588006,-34.61097581927831,"JAURETCHE, ARTURO",262,Caballito,6
067,049,001g,067-049-001g,31300629/18,15-67-49-001g,2019-04-26,A.JONTE 2808/10,Comuna 11,1416,C1416EYN,Obra Media,1249.47,ALVAREZ JONTE AV. 2808,-58.48217520638921,-34.6086109533569,ALVAREZ JONTE AV.,2808,Villa Santa Rita,11
079,073,018,079-073-018,23514488/18,15-79-73-18,2018-11-15,A.JONTE 3978/80,Comuna 10,1407,C1407GOT,Obra Media,807.01,ALVAREZ JONTE AV. 3978,-58.496427452418295,-34.61490121147389,ALVAREZ JONTE AV.,3978,Monte Castro,10
 , , , - - ,22288434/17,,2018-01-12,A.M.AGUADO 2861,Comuna 14,1425,C1425CEA,Obra Menor,260.08,"AGUADO, ALEJANDRO M. DE 2861",-58.4018259425971,-34.5798673568889,"AGUADO, ALEJANDRO M. DE",2861,Palermo,14
045,089,009,045-089-009,30246145/18,7-45-89-09,2019-05-23,A.MACHADO 568,Comuna 6,1405,C1405DIB,Obra Media,701.74,"MACHADO, ANTONIO 568",-58.43971631889711,-34.6065407013648,"MACHADO, ANTONIO",568,Caballito,6
026,015,001c,026-015-001c,16747721/17,5-26-15-1C,2017-11-23,A.MAGALDI 2209,Comuna 4,1286,C1286AFW,Obra Mayor,18621.81,"MAGALDI, AGUSTIN 2209",-58.3914914157219,-34.661523475127694,"MAGALDI, AGUSTIN",2209,Barracas,4
087,85B,017,087-85B-017,31046438/18,15-87-85B-17,2019-05-10,A.MOHR 2280,Comuna 10,1417,C1417BJB,Obra Menor,115.23,"MOHR, ALEJANDRO 2280",-58.5049229624112,-34.6183363755695,"MOHR, ALEJANDRO",2280,Monte Castro,10
095,035,001a,095-035-001a,12022935/18,1-95-35-1a,2018-07-30,A.S.VALIENTE 154,Comuna 9,1408,C1408HPD,Obra Media,1299.39,"SAENZ VALIENTE, ANSELMO 154",-58.51051695928521,-34.6375252215884,"SAENZ VALIENTE, ANSELMO",154,Liniers,9
098,01T,002a,098-01T-002a,17088126/18,21-98-1T-2a,2018-10-31,A.VILLAFLOR 559,Comuna 1,1107,C1107CIK,Obra Media,507.61,"VILLAFLOR, AZUCENA 559",-58.3603271330566,-34.612020095919,"VILLAFLOR, AZUCENA",559,Puerto Madero,1
060,105,009,060-105-009,18513481/17,1-60-105-9,2017-11-23,ACASSUSO 5185,Comuna 10,1408,C1408FDA,Obra Media,880.84,ACASSUSO 5185,-58.5036197504933,-34.63932731154709,ACASSUSO,5185,Villa Luro,10
074,127,001d,074-127-001d,39468492/15,1-74-127-1d,2017-09-28,ACASSUSO 6211,Comuna 9,1408,C1408FDW,Obra Media,822.79,ACASSUSO 6211,-58.511916634716904,-34.6468706666522,ACASSUSO,6211,Liniers,9
 , , , - - ,12060382/18,,2018-06-06,ACASSUSO 7187/89,Comuna 9,1408,C1408FES,Obra Menor,311.12,ACASSUSO 7187,-58.5192740358901,-34.6534176805909,ACASSUSO,7187,Liniers,9
074,12A,009,074-12A-009,277049-33/18,1-74-12A-9,2018-12-18,ACASSUSO 7550/52,Comuna 9,1440,C1440CMF,Obra Menor,41.5,ACASSUSO 7550,-58.5215218387197,-34.6566198117525,ACASSUSO,7550,Mataderos,9
074,12A,008,074-12A-008,34937598/18,1-74-12A-8,2019-02-26,ACASUSO 7544,Comuna 9,1440,C1440CMF,Obra Menor,63.3,ACASSUSO 7544,-58.5214263978828,-34.6565393020702,ACASSUSO,7544,Mataderos,9
 , , , - - ,30152607/17,,2018-02-28,ACASUSO 7544/46,Comuna 9,1440,C1440CMF,Obra Menor,144.5,ACASSUSO 7544,-58.5214263978828,-34.6565393020702,ACASSUSO,7544,Mataderos,9
031,077,009,031-077-009,28086724/18,18-031-077-009,2018-11-05,ACEVEDO 1029/31,Comuna 15,1414,C1414DJU,Obra Menor,331.42,ACEVEDO 1029,-58.433727688405284,-34.5937188211643,ACEVEDO,1029,Villa Crespo,15
031,077,003,031-077-003,29747421/17,18-31-77-3,2018-09-13,ACEVEDO 1085/89,Comuna 15,1414,C1414DJU,Obra Mayor,3378.7,ACEVEDO 1085,-58.43326037755821,-34.5934204087178,ACEVEDO,1085,Villa Crespo,15
031,005,025,031-005-025,31935505/18,18-31-5-25,2019-02-27,ACEVEDO 450/58,Comuna 15,1414,C1414DJJ,Obra Mayor,3079.04,ACEVEDO 450,-58.4400757263657,-34.5976551846585,ACEVEDO,450,Villa Crespo,15
 , , , - - ,29138546/17,,2018-04-25,ACEVEDO 561/67,Comuna 15,1414,C1414DJK,Obra Mayor,5247.57,ACEVEDO 561,-58.438682720269,-34.5968884173958,ACEVEDO,561,Villa Crespo,15
031,066,024,031-066-024,6986516/17,18-31-66-24,2017-11-30,ACEVEDO 936,Comuna 15,1414,C1414DJT,Obra Media,666.29,ACEVEDO 936,-58.4347652935931,-34.5942565281892,ACEVEDO,936,Villa Crespo,15
042,051,032,042-051-032,33078105/18,05-42-51-32,2019-02-28,ACHAVAL 239/41,Comuna 6,1406,C1406CWA,Obra Media,1836.53,ACHAVAL 239,-58.44981017878021,-34.62708198356961,ACHAVAL,239,Caballito,6
 , , , - - ,29892513/17,,2018-04-09,ACHAVAL 264,Comuna 6,1406,C1406CWB,Obra Media,1910.61,ACHAVAL 264,-58.4495184233558,-34.6274062348048,ACHAVAL,264,Caballito,6
 , , , - - ,9116576/18,,2018-06-05,ACHAVAL 280,Comuna 6,1406,C1406CWB,Obra Media,881.7,ACHAVAL 280,-58.449414062860406,-34.6276147672888,ACHAVAL,280,Caballito,6
042,058,007b,042-058-007b,32424072/18,5-42-58-7B,2019-01-02,ACHAVAL 426,Comuna 6,1406,C1406CWF,Obra Media,1146.96,ACHAVAL 426,-58.4485515443853,-34.6293422323811,ACHAVAL,426,Caballito,6
 , , , - - ,12624528/14,,2018-02-08,ACHAVAL 492,Comuna 6,1406,C1406CWF,Obra Media,660.92,ACHAVAL 492,-58.4482647100045,-34.6299194396451,ACHAVAL,492,Caballito,6
063,008,047,063-008-047,12373015/18,16-63-8-47,2018-10-16,ACHEGA 3170,Comuna 12,1431,C1431ETF,Obra Media,626.55,ACHEGA 3170,-58.5009399148876,-34.5730825509871,ACHEGA,3170,Villa Urquiza,12
 , , , - - ,23237927/17,,2018-05-17,ACHEGA 3425,Comuna 12,1431,C1431ETK,Obra Media,916.19,ACHEGA 3425,-58.5030437003261,-34.5703405861366,ACHEGA,3425,Villa Urquiza,12
 , , , - - ,20595753/17,,2018-06-11,ACHEGA 3562,Comuna 12,1431,C1431ETN,Obra Media,1178.51,ACHEGA 3562,-58.5048086644659,-34.5682851993501,ACHEGA,3562,Villa Urquiza,12
060,35A,018,060-35A-018,9974373/17,1-60-35A-18,2017-10-11,ACONCAGUA 5749,Comuna 9,1440,C1440CHC,Obra Media,778.19,ACONCAGUA 5749,-58.5049528658583,-34.6455057306935,ACONCAGUA,5749,Liniers,9
060,035A,015,060-035A-015,14372677/18,1-60-035A-015,2018-10-16,ACONCAGUA 5781,Comuna 9,1440,C1440CHC,Obra Menor,33,ACONCAGUA 5781,-58.5051500906412,-34.645675766375696,ACONCAGUA,5781,Liniers,9
060,06A,016,060-06A-016,30145779/17,1-60-6A-16,2018-07-31,ACONCAGUA 5955,Comuna 9,1440,C1440CHG,Obra Media,676.78,ACONCAGUA 5955,-58.5066545811112,-34.646969690035704,ACONCAGUA,5955,Liniers,9
047,090,033,047-090-033,5519537/18,15-47-090-033,2018-07-04,ACOYTE 1288,Comuna 15,1414,C1414BZD,Obra Media,1416.22,ACOYTE 1288,-58.441749470782796,-34.60456315486889,ACOYTE,1288,Villa Crespo,15
047,094,030a,047-094-030a,31820495/18,15-47-94-30a,2019-01-03,ACOYTE 1638,Comuna 15,1414,C1414BZL,Obra Media,1911.34,ACOYTE 1638,-58.44437202777139,-34.60193195831909,ACOYTE,1638,Villa Crespo,15
045,73A,000T,045-73A-000T,9720744/18,7-45-73A-T,2019-03-21,ACOYTE 580,Comuna 6,1405,C1405BGQ,Micro Obra,,ACOYTE AV. 580,-58.438895876953794,-34.611885614723704,ACOYTE AV.,580,Caballito,6
 , , , - - ,11898764/17,,2018-02-08,ACUÑA FIGUEROA 1737,Comuna 14,1180,C1180ABG,Obra Mayor,3010,"ACUÑA DE FIGUEROA, FRANCISCO 1737",-58.4203785884811,-34.5910362302451,"ACUÑA DE FIGUEROA, FRANCISCO",1737,Palermo,14
006,36.26B,004,006-36.26B-004,19188438/18,06-36.26B-04,2019-02-26,AGRELO 4274,Comuna 5,1224,C1224ABX,Obra Media,1175.96,AGRELO 4274,-58.426753062007705,-34.6193527468386,AGRELO,4274,Almagro,5
 , , , - - ,10052378/18,,2018-04-27,AGUARIBAY 6935,Comuna 10,1408,C1408AOE,Obra Menor,155.19,AGUARIBAY 6935,-58.5289454349839,-34.633113554320005,AGUARIBAY,6935,Versalles,10
015,100,016,015-100-016,9306390/17,19-15-100-16,2017-09-19,AGÜERO 1025/35,Comuna 2,1171,C1171ABQ,Obra Media,1305.75,AGUERO 1025,-58.4102233483873,-34.5977176961201,AGUERO,1025,Recoleta,2
015,079,039,015-079-039,18589029/18,19-15-79-39,2019-01-29,AGÜERO 1074,Comuna 2,1171,C1171ABR,Obra Media,1416.96,AGUERO 1074,-58.4103200235326,-34.5972219905055,AGUERO,1074,Recoleta,2
015,101,015,015-101-015,4423739/17,19-15-101-15,2017-10-12,AGÜERO 1151,Comuna 2,1425,C1425EHA,Obra Media,1730.3,AGUERO 1151,-58.409847139648704,-34.5962531107363,AGUERO,1151,Recoleta,2
015,092,030,015-092-030,9919974/17,19-15-92-30,2019-01-30,AGÜERO 2288,Comuna 2,1425,C1425EHX,Obra Media,740.69,AGUERO 2288,-58.4004665661109,-34.5866484539933,AGUERO,2288,Recoleta,2
013,058,017,013-058-017,21895559/17,9-13-58-17,2017-11-01,AGÜERO 321/323A,Comuna 3,1171,C1171ABC,Obra Media,1100.36,AGUERO 321,-58.4122601530127,-34.60604735474491,AGUERO,321,Balvanera,3
013,059,014,013-059-014,29638709/17,9-13-59-14,2018-07-24,AGÜERO 433/39,Comuna 3,1171,C1171ABE,Obra Media,785.4,AGUERO 433,-58.4118967894042,-34.6047767966924,AGUERO,433,Balvanera,3
013,053,001c,013-053-001c,25878508/15,9-13-53-1c,2018-11-22,AGÜERO 616/18,Comuna 3,1171,C1171ABJ,Micro Obra,,AGUERO 616,-58.4113509590399,-34.602332521094304,AGUERO,616,Balvanera,3
037,110,044,037-110-044,22169005/16,17-37-110-44,2017-10-10,AGUILAR 2821,Comuna 13,1426,C1426DTA,Obra Media,632.5,AGUILAR 2821,-58.4504939210594,-34.5725691981808,AGUILAR,2821,Colegiales,13
031,034,037,031-034-037,19839052/18,018-031-034-037,2018-08-28,AGUIRRE 1144,Comuna 15,1414,C1414ASX,Obra Menor,481.01,AGUIRRE 1144,-58.4412364906972,-34.5917824394665,AGUIRRE,1144,Villa Crespo,15
033,022,001a,033-022-001a,28759606/18,17-33-22-01A,2019-03-08,AGUIRRE 1408/20,Comuna 15,1414,C1414ATD,Obra Media,595.41,AGUIRRE 1408,-58.443474636806705,-34.5896198508679,AGUIRRE,1408,Chacarita,15
031,024,038,031-024-038,33760661/18,28-31-24-38,2019-03-11,AGUIRRE 180,Comuna 15,1414,C1414ASD,Obra Media,1686.75,AGUIRRE 180,-58.4331820284723,-34.6003754688204,AGUIRRE,180,Villa Crespo,15
031,038,015,031-038-015,28147251/18,18-31-038-15,2019-03-01,AGUIRRE 369/71,Comuna 15,1414,C1414ASG,Obra Media,1666.19,AGUIRRE 369,-58.4345457474453,-34.59875838052849,AGUIRRE,369,Villa Crespo,15
063,023,045,063-023-045,28805874/18,27-63-23-45,2019-01-29,AIZPURUA 3196,Comuna 12,1431,C1431ERP,Obra Menor,107.53,AIZPURUA 3196,-58.500089064758996,-34.57223690561109,AIZPURUA,3196,Villa Urquiza,12
 , , , - - ,11577948/17,,2018-05-17,AIZPURUA 3383/85,Comuna 12,1431,C1431ERS,Obra Menor,93.32,AIZPURUA 3383,-58.5015251763455,-34.57031750538711,AIZPURUA,3383,Villa Urquiza,12
055,000,011,055-000-011,29817875/17,1-60-55--11,2018-09-11,ALBARIÑO 1020/22,Comuna 9,1440,C1440DEJ,Obra Media,1478.13,ALBARIÑO 1020,-58.499865576448705,-34.647736155883194,ALBARIÑO,1020,Mataderos,9
060,065,006a,060-065-006a,15574006/18,1-60-65-6a,2018-07-23,ALBARIÑO 110,Comuna 10,1408,C1408HOD,Obra Media,1054.25,ALBARIÑO 110,-58.5095277740905,-34.640224803016,ALBARIÑO,110,Villa Luro,10
 , , , - - ,14283861/14,,2018-05-29,ALBARIÑO 1332/34,Comuna 9,1440,C1440DEP,Obra Media,540.39,ALBARIÑO 1332,-58.49618835879029,-34.6505433714047,ALBARIÑO,1332,Mataderos,9
060,065,007,060-065-007,6939407/17,1-60-65-7,2017-09-06,ALBARIÑO 188,Comuna 10,1408,C1408HOD,Obra Media,610.8,ALBARIÑO 188,-58.5093763130517,-34.640340166327,ALBARIÑO,188,Villa Luro,10
 , , , - - ,18053741/17,,2018-03-28,ALBARIÑO 229,Comuna 10,1408,C1408HOE,Obra Menor,196.96,ALBARIÑO 229,-58.5088753722526,-34.6407707240908,ALBARIÑO,229,Villa Luro,10
 , , , - - ,19643963/17,,2018-02-08,ALBARIÑO 2361,Comuna 9,1440,C1440DFI,Obra Menor,495.74,ALBARIÑO 2361,-58.484675652704404,-34.6596427901264,ALBARIÑO,2361,Mataderos,9
 , , , - - ,12474997/17,,2018-05-29,ALBARIÑO 3457,Comuna 8,1439,C1439ETS,Micro Obra,8.1,ALBARIÑO 3457,-58.472136121738004,-34.66944200478069,ALBARIÑO,3457,Villa Lugano,8
060,046B,017,060-046B-017,27840268/17,060-046B-017,2017-10-11,ALBARIÑO 793,Comuna 9,1440,C1440DEC,Obra Menor,282.02,ALBARIÑO 793,-58.502520219561994,-34.6456865512222,ALBARIÑO,793,Liniers,9
038,051,043,038-051-043,8217428/18,38-051-043,2018-10-18,ALBARRACIN 1545/47,Comuna 7,1424,C1424BGC,Obra Menor,245.43,ALBARRACIN 1545,-58.4299641930632,-34.6350642561566,ALBARRACIN,1545,Parque Chacabuco,7
 , , , - - ,16016789/17,,2018-03-05,ALBARRACIN 1938/44,Comuna 7,1424,C1424BGL,Obra Menor,484.47,ALBARRACIN 1938,-58.4289172578605,-34.63941167707251,ALBARRACIN,1938,Parque Chacabuco,7
 , , , - - ,30405502/17,,2018-06-06,ALBERTI 1238,Comuna 3,1247,C1247AAB,Obra Media,1742.73,ALBERTI 1238,-58.400362766720285,-34.6240547742522,ALBERTI,1238,San Cristobal,3
 , , , - - ,26718230/16,,2018-03-13,ALBERTI 1749,Comuna 4,1247,C1247AAK,Obra Menor,65.05,ALBERTI 1749,-58.39943994348061,-34.630410080412695,ALBERTI,1749,Parque Patricios,4
 , , , - - ,28103022/17,,2018-04-24,ALCARAZ 4412/14,Comuna 10,1407,C1407GIF,Obra Media,1187.2,ALCARAZ 4412,-58.500503533033715,-34.6183041131034,ALCARAZ,4412,Monte Castro,10
085,54A,016,085-54A-016,17590561/17,15-85-54A-16,2017-09-13,ALCARAZ 4787,Comuna 10,1407,C1407GIM,Obra Media,704.66,ALCARAZ 4787,-58.5040243827821,-34.6200891891606,ALCARAZ,4787,Monte Castro,10
 , , , - - ,16321759/17,,2018-04-24,ALCARAZ 4826,Comuna 10,1407,C1407GIP,Obra Media,844.94,ALCARAZ 4826,-58.5046955664322,-34.62046910904951,ALCARAZ,4826,Monte Castro,10
085,047,020,085-047-020,24821255/18,15-85-47-20,2019-05-30,ALCARAZ 4883,Comuna 10,1407,C1407GIO,Obra Media,1104.78,ALCARAZ 4883,-58.50519969321421,-34.620604902406,ALCARAZ,4883,Monte Castro,10
 , , , - - ,29238050/17,,2018-03-16,ALCARAZ 4883,Comuna 10,1407,C1407GIO,Obra Media,1168.47,ALCARAZ 4883,-58.50519969321421,-34.620604902406,ALCARAZ,4883,Monte Castro,10
085,041,006,085-041-006,10177675/18,15-85-41-06,2018-12-12,ALCARAZ 4936/38,Comuna 10,1407,C1407GIR,Obra Media,2093.11,ALCARAZ 4936,-58.50601660252401,-34.6211248295638,ALCARAZ,4936,Monte Castro,10
None, , ,None- - ,33488039/18,2019/01/16,2019-01-16,ALCARAZ 5270,Comuna 10,1407,C1407GIX,Obra Media,1404.62,ALCARAZ 5270,-58.5101275006777,-34.62475638743161,ALCARAZ,5270,Monte Castro,10
 , , , - - ,12683602/18,,2018-06-26,ALCARAZ 5948/50,Comuna 10,1408,C1408CFD,Obra Menor,305.24,ALCARAZ 5948,-58.5158943940307,-34.630454267941,ALCARAZ,5948,Versalles,10
001,049,004,001-049-004,13793101/18,14-01-49-04,2018-08-08,ALEM 30/36,Comuna 1,1003,C1003AAN,Obra Media,648.55,"ALEM, LEANDRO N. AV. 30",-58.37039590743521,-34.6068800095818,"ALEM, LEANDRO N. AV.",30,San Nicolas,1
 , , , - - ,16372118/17,,2018-02-09,ALGARROBO 1022,Comuna 4,1293,C1293ABB,Obra Menor,119.81,ALGARROBO 1022,-58.3793416150642,-34.6545875600718,ALGARROBO,1022,Barracas,4
093,124A,014,093-124A-014,16510890/18,15-93-124A-014,2018-09-06,ALICANTE 1909/11,Comuna 10,1408,C1408DNA,Obra Menor,200.92,ALICANTE 1909,-58.5223632471744,-34.623030819131195,ALICANTE,1909,Villa Real,10
085,045,016,085-045-016,385606/17,15-85-45-16,2017-10-11,ALLENDE 1973,Comuna 10,1407,C1407CQA,Obra Media,2495.98,ALLENDE 1973,-58.5048348429628,-34.622316796389605,ALLENDE,1973,Monte Castro,10
087,64A,016,087-64A-016,30165236/18,15-87-64A-16,2019-04-05,ALLENDE 2720,Comuna 11,1417,C1417BML,Obra Menor,256.44,ALLENDE 2720,-58.511067145869895,-34.615265577676894,ALLENDE,2720,Villa Devoto,11
087,64A,016,087-64A-016,301652236/18,15-87-64A-16,2018-11-28,ALLENDE 2720,Comuna 11,1417,C1417BML,Micro Obra,,ALLENDE 2720,-58.511067145869895,-34.615265577676894,ALLENDE,2720,Villa Devoto,11
087,064A,016,087-064A-016,30165236/18,087-064A-016,2018-11-12,ALLENDE 2720,Comuna 11,1417,C1417BML,Obra Menor,256.44,ALLENDE 2720,-58.511067145869895,-34.615265577676894,ALLENDE,2720,Villa Devoto,11
087,81A,015,087-81A-015,18344653/18,15-87-81A-15,2018-09-03,ALLENDE 3113/17,Comuna 11,1417,C1417BMS,Obra Menor,99.63,ALLENDE 3113,-58.513728948876896,-34.6123065329593,ALLENDE,3113,Villa Devoto,11
 , , , - - ,4679917/18,,2018-04-25,ALLENDE 4144,Comuna 11,1419,C1419BVN,Obra Menor,94.98,ALLENDE 4144,-58.521071663129995,-34.6043023412592,ALLENDE,4144,Villa Devoto,11
 , , , - - ,29413111/17,,2018-05-04,ALM.BROWN 757/61,Comuna 4,1155,C1155AEE,Obra Mayor,3596.46,"BROWN, ALTE. AV. 757",-58.36164077698339,-34.6316885444179,"BROWN, ALTE. AV.",757,Boca,4
032,017,039,032-017-039,29818349/17,02-32-017-039,2019-01-28,ALMAFUERTE 391,Comuna 4,1437,C1437JLD,Obra Media,964.81,ALMAFUERTE AV. 391,-58.4131642029597,-34.6426012631835,ALMAFUERTE AV.,391,Nueva Pompeya,4
079,140A,010,079-140A-010,12659248/18,15-79-140A-10,2019-02-07,ALMAGRO 1665,Comuna 11,1416,C1416BDA,Obra Menor,154.16,ALMAGRO 1665,-58.4849353366225,-34.615252982487,ALMAGRO,1665,Villa Santa Rita,11
089,01A,003,089-01A-003,28919564/17,15-89-1A-03,2018-08-07,ALTA GRACIA 3518/20,Comuna 11,1419,C1419CFJ,Obra Menor,64.45,ALTA GRACIA 3518,-58.527350509746,-34.610869841943696,ALTA GRACIA,3518,Villa Devoto,11
061,059,022,061-059-022,2701333/18,15-061-059-022,2019-04-29,ALTOLAGUIRRE 1242,Comuna 15,1427,C1427BHB,Obra Menor,115.91,ALTOLAGUIRRE 1242,-58.48121654855699,-34.5896699057662,ALTOLAGUIRRE,1242,Parque Chas,15
051,020,004,051-020-004,9172973/17,16-51-20-04,2017-11-28,ALTOLAGUIRRE 2228,Comuna 12,1431,C1431ECR,Obra Media,1805.94,ALTOLAGUIRRE 2228,-58.4898905366424,-34.578244608558194,ALTOLAGUIRRE,2228,Villa Urquiza,12
 , , , - - ,28060661/17,,2018-03-13,ALTOLAGUIRRE 2879,Comuna 12,1431,C1431EDI,Obra Menor,374.73,ALTOLAGUIRRE 2879,-58.493821300281,-34.57327433807,ALTOLAGUIRRE,2879,Villa Urquiza,12
063,080,013,063-080-013,34947036/18,16-63-80-13,2019-05-21,ALTOLAGUIRRE 2919,Comuna 12,1431,C1431EDK,Obra Menor,276.96,ALTOLAGUIRRE 2919,-58.49420238237251,-34.572799702943804,ALTOLAGUIRRE,2919,Villa Urquiza,12
063,070,037,063-070-037,28198413/16,16-63-70-37,2018-10-10,ALTOLAGUIRRE 3276,Comuna 12,1431,C1431EDR,Obra Media,583.5,ALTOLAGUIRRE 3276,-58.4970357024376,-34.5693858230497,ALTOLAGUIRRE,3276,Villa Urquiza,12
063,071,037,063-071-037,16720459/17,16-63-71-37,2018-07-24,ALTOLAGUIRRE 3350/52,Comuna 12,1431,C1431EDT,Obra Media,1241.9,ALTOLAGUIRRE 3350,-58.4976371822799,-34.5686435352305,ALTOLAGUIRRE,3350,Villa Urquiza,12
 , , , - - ,17953525/17,,2018-02-28,ALTOLAGUIRRE 3575,Comuna 12,1431,C1431EDW,Obra Media,622.71,ALTOLAGUIRRE 3575,-58.4999845591772,-34.5656187903918,ALTOLAGUIRRE,3575,Villa Urquiza,12
059,027,003,059-027-003,30280785/17,15-59-27-03,2018-07-30,ALV.JONTE 1920/22,Comuna 11,1416,C1416EXR,Obra Media,1878.56,ALVAREZ JONTE 1920,-58.4707234444373,-34.60322025388489,ALVAREZ JONTE,1920,Villa Gral. Mitre,11
069,029,024,069-029-024,12128431/17,15-69-29-24,2017-09-15,ALV.JONTE 2771/75,Comuna 11,1416,C1416EXM,Obra Media,1268.35,ALVAREZ JONTE AV. 2771,-58.4816046828345,-34.6083668989254,ALVAREZ JONTE AV.,2771,Villa Del Parque,11
079,128A,016,079-128A-016,30180477/17,15-79-128A-16,2018-09-05,ALV.JONTE 3402/04,Comuna 11,1407,C1407GOO,Obra Menor,340.93,ALVAREZ JONTE AV. 3402,-58.490227209823296,-34.611382185252,ALVAREZ JONTE AV.,3402,Villa Santa Rita,11
091,79A,027,091-79A-027,15766315/19,15-91-79A-27,2019-05-22,ALV.JONTE 3867/69,Comuna 11,1407,C1407GOF,Obra Mayor, ,ALVAREZ JONTE AV. 3867,-58.4950877429125,-34.6140783320192,ALVAREZ JONTE AV.,3867,Villa Del Parque,11
 , , , - - ,29813253/17,,2018-01-12,ALV.JONTE 3867/69,Comuna 11,1407,C1407GOF,SIN INFORMACION,,ALVAREZ JONTE AV. 3867,-58.4950877429125,-34.6140783320192,ALVAREZ JONTE AV.,3867,Villa Del Parque,11
 , , , - - ,29290432/17,,2018-06-11,ALV.JONTE 5541,Comuna 10,1407,C1407GPJ,Obra Media,875.6,ALVAREZ JONTE AV. 5541,-58.513977093043614,-34.6262758225825,ALVAREZ JONTE AV.,5541,Monte Castro,10
037,019,001,037-019-001,23772558/18,17-37-19-1,2019-01-16,ALV.THOMAS 1002/06,Comuna 15,1427,C1427CCX,Micro Obra,,ALVAREZ THOMAS AV. 1002,-58.4561832712855,-34.5789636220258,ALVAREZ THOMAS AV.,1002,Chacarita,15
051,76A,016,051-76A-016,8209738/18,16-51-76A-16,2018-08-15,ALV.THOMAS 2731/33,Comuna 12,1431,C1431FOE,Obra Menor,169.32,ALVAREZ THOMAS AV. 2731,-58.4788630674466,-34.5747373128916,ALVAREZ THOMAS AV.,2731,Villa Urquiza,12
051,078,126,051-078-126,21191047/17,16-51-78-126,2017-10-23,ALV.THOMAS 2953,Comuna 12,1431,C1431FOG,Obra Media,1834.1,ALVAREZ THOMAS AV. 2953,-58.4810696836508,-34.5730960188559,ALVAREZ THOMAS AV.,2953,Villa Urquiza,12
053,013,011a,053-013-011a,24071569/16,16-53-13-11A,2017-11-27,ALV.THOMAS 3134/52,Comuna 12,1431,C1431FOV,Obra Mayor,10886.36,ALVAREZ THOMAS AV. 3134,-58.4830435152997,-34.57175947498061,ALVAREZ THOMAS AV.,3134,Villa Urquiza,12
037,023,019,037-023-019,20441884/18,17-37-23-19,2019-05-22,ALV.THOMAS 707,Comuna 13,1427,C1427CCH,Micro Obra,,ALVAREZ THOMAS AV. 707,-58.4521983882007,-34.5799922308753,ALVAREZ THOMAS AV.,707,Colegiales,13
037,023,019,037-023-019,20441884/18,17-37-23-19,2018-10-31,ALV.THOMAS 707,Comuna 13,1427,C1427CCH,Obra Media,1580.19,ALVAREZ THOMAS AV. 707,-58.4521983882007,-34.5799922308753,ALVAREZ THOMAS AV.,707,Colegiales,13
037,017,010b,037-017-010b,32635299/18,17-37-17-010b,2019-03-26,ALV.THOMAS 802/08,Comuna 15,1427,C1427CCV,Obra Media,1961.57,ALVAREZ THOMAS AV. 802,-58.45374730314922,-34.5797067654625,ALVAREZ THOMAS AV.,802,Chacarita,15
037,025,020,037-025-020,19958969/18,17-37-25-20,2018-11-23,ALV.THOMAS 925,Comuna 13,1427,C1427CCJ,Obra Mayor,3300.67,ALVAREZ THOMAS AV. 925,-58.4551558457658,-34.5790422636534,ALVAREZ THOMAS AV.,925,Colegiales,13
037,025,016c,037-025-016c,14738270/17,17-37-25-16c,2018-10-16,ALV.THOMAS 939,Comuna 13,1427,C1427CCJ,Obra Mayor,6616.97,ALVAREZ THOMAS AV. 939,-58.455377027394114,-34.57897131917069,ALVAREZ THOMAS AV.,939,Colegiales,13
037,018,032b,037-018-032b,17828759/18,17-37-18-32B,2019-04-29,ALV.THOMAS 964/78,Comuna 15,1427,C1427CCW,Obra Mayor,3068.91,ALVAREZ THOMAS AV. 964,-58.4557238213389,-34.5790877879875,ALVAREZ THOMAS AV.,964,Chacarita,15
026,37D,023,026-37D-023,17994842/17,2-26-37D-23,2017-12-21,ALVARADO 3141,Comuna 4,1290,C1290AAY,Obra Mayor,7484.71,ALVARADO 3141,-58.3914629514991,-34.6483579470119,ALVARADO,3141,Barracas,4
032,026,001d,032-026-001d,15262970/18,2-32-26-1D,2018-12-04,ALZAGA 2263,Comuna 5,1240,C1240AAE,Obra Media,1387.55,ALZAGA 2263,-58.41463510351901,-34.6381402209568,ALZAGA,2263,Boedo,5
054,063,039,054-063-039,442069/15,1-054-063-039,2019-03-21,AMEGHINO 617,Comuna 9,1407,C1407JAC,Obra Menor,134.78,"AMEGHINO, FLORENTINO, DR. 617",-58.487511394259,-34.64273551582989,"AMEGHINO, FLORENTINO, DR.",617,Parque Avellaneda,9
037,132,021,037-132-021,34659998/18,17-37-132-21,2019-03-07,AMENABAR 1202/04,Comuna 13,1426,C1426AJV,Obra Media,1459.91,AMENABAR 1202,-58.4508092718552,-34.5698995043322,AMENABAR,1202,Colegiales,13
037,145,009,037-145-009,9401916/18,17-37-145-09,2018-07-30,AMENABAR 1457/59,Comuna 13,1426,C1426AJY,Obra Mayor,3529.64,AMENABAR 1457,-58.45279728442921,-34.5686294654354,AMENABAR,1457,Colegiales,13
037,146,017a,037-146-017a,17098348/17,17-37-146-17a,2017-12-05,AMENABAR 1523/17,Comuna 13,1426,C1426AKC,Obra Media,1787.2,AMENABAR 1523,-58.4536442425406,-34.5681379296003,AMENABAR,1523,Colegiales,13
 , , , - - ,17189005/16,,2018-04-13,AMENABAR 1641/45,Comuna 13,1426,C1426AKE,Obra Menor,116.05,AMENABAR 1641,-58.4550079203997,-34.5671985046669,AMENABAR,1641,Belgrano,13
 , , , - - ,28749984/17,,2018-03-19,AMENABAR 2911/13,Comuna 13,1429,C1429AEA,Obra Mayor,3048.2,AMENABAR 2911,-58.4644913603081,-34.5561433575658,AMENABAR,2911,Nuñez,13
035,064,001,035-064-001,12562198/18,17-35-64-1,2018-12-07,AMENABAR 34/72,Comuna 14,1426,C1426AIB,Micro Obra,,AMENABAR 34,-58.439116906181795,-34.5773071397893,AMENABAR,34,Palermo,14
 , , , - - ,29760589/17,,2018-05-15,AMENABAR 3821/23,Comuna 12,1429,C1429AES,Obra Media,1901.61,AMENABAR 3821,-58.4711408214259,-34.5485243750433,AMENABAR,3821,Saavedra,12
045,040,025,045-040-025,26800383/18,7-45-40-25,2018-12-14,AMPERE 841,Comuna 6,1405,C1405DFA,Obra Media,1302,AMPERE 841,-58.4456493306251,-34.6086271378837,AMPERE,841,Caballito,6
045,039,009b,045-039-009b,9405863/18,07-45-39-9b,2018-09-28,AMPERE 850,Comuna 6,1405,C1405DFB,Obra Mayor,2978.83,AMPERE 850,-58.4459112822013,-34.6087992723605,AMPERE,850,Caballito,6
081,96B,029,081-96B-029,16834096/17,15-81-96B-29,2017-12-04,AMSTERDAM 3731,Comuna 11,1417,C1417GDA,Obra Media,507.3,AMSTERDAM 3731,-58.4968648942119,-34.6094880439032,AMSTERDAM,3731,Villa Del Parque,11
015,115,032,015-115-032,21404153/15,19-15-115-32,2017-10-26,ANCHORENA 1152/56,Comuna 2,1425,C1425ELB,Obra Media,2383.03,"ANCHORENA, TOMAS MANUEL DE, DR. 1152",-58.407093720857716,-34.5960158277846,"ANCHORENA, TOMAS MANUEL DE, DR.",1152,Recoleta,2
013,018,014,013-018-014,26398984/18,09-13-18-14,2018-12-04,ANCHORENA 884/88,Comuna 3,1170,C1170ACP,Obra Mayor,8330,"ANCHORENA, TOMAS MANUEL DE, DR. 884",-58.4084901029119,-34.5987515610317,"ANCHORENA, TOMAS MANUEL DE, DR.",884,Balvanera,3
023,002,018,023-002-018,4991114/18,17-23-2-18,2018-08-03,ANCON 5168,Comuna 14,1425,C1425BZB,Obra Media,830.24,ANCON 5168,-58.43200254520579,-34.5755885626478,ANCON,5168,Palermo,14
 , , , - - ,26581562/17,,2018-06-06,ANDALGALA 1175/77,Comuna 9,1408,C1408GDE,Obra Media,864.51,ANDALGALA 1175,-58.5203514303827,-34.65164931009931,ANDALGALA,1175,Liniers,9
074,46A,003,074-46A-003,34246359/18,01-74-46A-003,2019-01-18,ANDALGALA 1277,Comuna 9,1408,C1408GDG,Obra Media,1033.7,ANDALGALA 1277,-58.5189579831928,-34.652694151538604,ANDALGALA,1277,Liniers,9
074,050,027,074-050-027,26264595/16,1-74-50-27,2019-01-30,ANDALGALA 1676,Comuna 9,1440,C1440ENH,Obra Media,895.02,ANDALGALA 1676,-58.5141607912267,-34.656359062632696,ANDALGALA,1676,Mataderos,9
074,39B,006,074-39B-006,14647287/17,1-74-39B-6,2017-10-24,ANDALGALA 1845,Comuna 9,1440,C1440ENK,Obra Media,997,ANDALGALA 1845,-58.5122364850809,-34.6579292185489,ANDALGALA,1845,Mataderos,9
076,096,013a,076-096-013a,22438865/18,1-76-96-13a,2018-09-26,ANDALGALA 2034,Comuna 9,1440,C1440ENP,Obra Menor,458.8,ANDALGALA 2034,-58.509640396245786,-34.6598658787912,ANDALGALA,2034,Mataderos,9
076,079,038b,076-079-038b,30415545/17,1-76-79-38B,2018-07-18,ANDALGALA 2431,Comuna 9,1440,C1440ENW,Obra Media,559.3,ANDALGALA 2431,-58.504429704360284,-34.66435675693369,ANDALGALA,2431,Mataderos,9
 , , , - - ,29763656/17,,2018-06-26,ANDONAEGUI 1217,Comuna 15,1427,C1427BEG,Obra Media,1456.25,ANDONAEGUI 1217,-58.47882196039479,-34.5880313939116,ANDONAEGUI,1217,Parque Chas,15
061,113,026,061-113-026,10562284/17,15-61-113-26,2017-12-05,ANDONAEGUI 1484/86,Comuna 15,1431,C1431DVB,Obra Menor,126.77,ANDONAEGUI 1484,-58.481510653526705,-34.5853431530132,ANDONAEGUI,1484,Parque Chas,15
051,029,028,051-029-028,11180582/18,16-51-029-028,2018-10-03,ANDONAEGUI 1930/32,Comuna 12,1431,C1431DVL,Obra Menor,282.26,ANDONAEGUI 1930,-58.4852773182748,-34.5808290543548,ANDONAEGUI,1930,Villa Urquiza,12
051,030,027a,051-030-027a,21556549/15,16-51-30-27a,2017-12-21,ANDONAEGUI 2050/68,Comuna 12,1431,C1431DVN,Obra Media,2304.76,ANDONAEGUI 2050,-58.486344479889496,-34.5795849301624,ANDONAEGUI,2050,Villa Urquiza,12
 , , , - - ,20885014/17,,2018-06-19,ANDONAEGUI 2053/55,Comuna 12,1431,C1431DVM,Obra Media,970.2,ANDONAEGUI 2053,-58.486337183062,-34.579459470932996,ANDONAEGUI,2053,Villa Urquiza,12
 , , , - - ,22949700/17,,2018-01-24,ANDONAEGUI 2261,Comuna 12,1431,C1431DVQ,Obra Media,603.33,ANDONAEGUI 2261,-58.48872994096271,-34.57758349932631,ANDONAEGUI,2261,Villa Urquiza,12
051,037,015,051-037-015,17960728/17,16-51-037-015,2019-02-07,ANDONAEGUI 2343,Comuna 12,1431,C1431DVS,Obra Media,920.96,ANDONAEGUI 2343,-58.4892562237275,-34.5769588958592,ANDONAEGUI,2343,Villa Urquiza,12
 , , , - - ,11023606/17,,2018-05-31,ANDONAEGUI 2483/85,Comuna 12,1431,C1431DWA,Obra Mayor,2780.49,ANDONAEGUI 2483,-58.49027753604261,-34.5757308764343,ANDONAEGUI,2483,Villa Urquiza,12
063,98A,015,063-98A-015,25847738/18,16-63-98A-015,2018-11-05,ANDONAEGUI 3423/25,Comuna 12,1431,C1431DWU,Micro Obra,,ANDONAEGUI 3423,-58.497250332261494,-34.5670474381925,ANDONAEGUI,3423,Villa Urquiza,12
055,020,016,055-020-016,30812165/18,16-55-20-16,2019-01-02,ANDONAEGUI 3720,Comuna 12,1431,C1431DXB,Obra Menor,122.92,ANDONAEGUI 3720,-58.50013738112471,-34.5634122237286,ANDONAEGUI,3720,Saavedra,12
 , , , - - ,29041885/17,,2018-04-11,ANDRES LAMAS 729,Comuna 7,1406,C1406BIA,Obra Media,1498.45,"LAMAS, ANDRES 729",-58.4612662453811,-34.6186643881844,"LAMAS, ANDRES",729,Flores,7
 , , , - - ,26515820/17,,2018-01-12,ANTEZANA 12/16,Comuna 15,1414,C1414EEB,Obra Mayor,3447.59,ANTEZANA 12,-58.4415420270185,-34.60276420695631,ANTEZANA,12,Villa Crespo,15
 , , , - - ,21293669/17,,2018-04-05,ANTEZANA 547,Comuna 15,1416,C1416FMA,Obra Media,1476.5,ANTEZANA 547,-58.4471823994052,-34.606549263766,ANTEZANA,547,Villa Crespo,15
047,111,019,047-111-019,11993452/17,15-47-111-19,2017-12-29,ANTEZANA 67/73,Comuna 15,1414,C1414EEA,Obra Menor,112.23,ANTEZANA 67,-58.4422827113429,-34.6032086405408,ANTEZANA,67,Villa Crespo,15
059,104,013,059-104-013,20564862/17,15-59-104-13,2017-12-04,AÑASCO 2757,Comuna 15,1416,C1416CUM,Obra Menor,490.14,AÑASCO 2757,-58.465169652255106,-34.5979074660071,AÑASCO,2757,Paternal,15
 , , , - - ,14476796/17,,2018-03-22,AQUINO 5463,Comuna 8,1439,C1439ADS,Obra Media,610.73,AQUINO 5463,-58.47540614961501,-34.673326464662296,AQUINO,5463,Villa Lugano,8
080,122,019b,080-122-019b,9569870/17,1-80-122-19b,2017-12-13,AQUINO 5581,Comuna 8,1439,C1439ADU,Obra Media,540.21,AQUINO 5581,-58.4764998370709,-34.6743760882655,AQUINO,5581,Villa Lugano,8
057,102,005,057-102-005,23259139/15,5-57-102-005,2019-03-27,ARANGUREN 1032,Comuna 6,1405,C1405CRV,Obra Media,1691.25,"ARANGUREN, JUAN F., DR. 1032",-58.447328530574204,-34.6167912072072,"ARANGUREN, JUAN F., DR.",1032,Caballito,6
 , , , - - ,7141103/18,,2018-05-04,ARANGUREN 1061/65,Comuna 6,1405,C1405CRU,Obra Mayor,4066.65,"ARANGUREN, JUAN F., DR. 1061",-58.4478788936989,-34.6168038012878,"ARANGUREN, JUAN F., DR.",1061,Caballito,6
057,092,006,057-092-006,34803258/18,5-57-92-006,2019-03-27,ARANGUREN 1160,Comuna 6,1405,C1405CRX,Obra Media,1500.33,"ARANGUREN, JUAN F., DR. 1160",-58.4490498113737,-34.6172707903823,"ARANGUREN, JUAN F., DR.",1160,Caballito,6
057,077,019b,057-077-019b,23879967/18,05-57-77-19b,2019-05-24,ARANGUREN 1337/49,Comuna 6,1405,C1405CSA,Obra Mayor,3296.57,"ARANGUREN, JUAN F., DR. 1337",-58.45133905336139,-34.618037403610394,"ARANGUREN, JUAN F., DR.",1337,Caballito,6
057,061,003a,057-061-003a,26983120/18,5-57-61-3a,2019-04-04,ARANGUREN 1534/38,Comuna 6,1406,C1406FWB,Obra Media,825.78,"ARANGUREN, JUAN F., DR. 1534",-58.4535545911033,-34.618997977258395,"ARANGUREN, JUAN F., DR.",1534,Caballito,6
065,114,019,065-114-019,2079502/16,5-65-114-19,2019-02-15,ARANGUREN 2123/25,Comuna 7,1406,C1406FWM,Micro Obra,,"ARANGUREN, JUAN F., DR. 2123",-58.462171886784716,-34.6219339272481,"ARANGUREN, JUAN F., DR.",2123,Flores,7
045,106,027,045-106-027,30017611/17,17-45-106-027,2019-01-02,ARANGUREN 349,Comuna 6,1405,C1405CRG,Obra Media,1046.34,"ARANGUREN, JUAN F., DR. 349",-58.4360136181643,-34.611715559606196,"ARANGUREN, JUAN F., DR.",349,Caballito,6
077,037,005,077-037-005,34841156/18,1-77-37-05,2019-02-07,ARANGUREN 4676,Comuna 10,1407,C1407EMB,Obra Menor,269.07,"ARANGUREN, JUAN F., DR. 4676",-58.492870970125196,-34.631709584519896,"ARANGUREN, JUAN F., DR.",4676,Velez Sarsfield,10
045,019,016,045-019-016,22182414/17,7-45-19-16,2018-11-23,ARANGUREN 896,Comuna 6,1405,C1405CRR,Obra Media,1669.13,"ARANGUREN, JUAN F., DR. 896",-58.4450837540352,-34.6156218981173,"ARANGUREN, JUAN F., DR.",896,Caballito,6
 , , , - - ,10602637/18,,2018-05-29,ARAOZ 1019,Comuna 15,1414,C1414DPU,Obra Menor,76.52,ARAOZ 1019,-58.430248669002,-34.5956181571513,ARAOZ,1019,Villa Crespo,15
057,085,033,057-085-033,20125664/16,5-57-85-33,2017-10-10,ARAOZ 1025,Comuna 15,1414,C1414DPU,Obra Menor,299.18,ARAOZ 1025,-58.430182979221286,-34.595575517247,ARAOZ,1025,Villa Crespo,15
031,088,011,031-088-011,21446613/16,18-31-88-11,2017-10-10,ARAOZ 1035,Comuna 15,1414,C1414DPU,Obra Menor,251.04,ARAOZ 1035,-58.43011575832249,-34.59553188339011,ARAOZ,1035,Villa Crespo,15
019,029,009d,019-029-009d,11710039/18,18-19-29-9d,2018-10-16,ARAOZ 1485/87,Comuna 14,1414,C1414DQC,Obra Media,653.31,ARAOZ 1485,-58.42530237406101,-34.5923287706358,ARAOZ,1485,Palermo,14
019,046,012,019-046-012,24707324/18,18-19-046-012,2019-04-22,ARAOZ 1569,Comuna 14,1414,C1414DQE,Obra Media,818.45,ARAOZ 1569,-58.42449458102122,-34.5917817073834,ARAOZ,1569,Palermo,14
 , , , - - ,11519798/16,,2018-03-19,ARAOZ 1665/69 U.F.1,Comuna 14,1414,C1414DQG,Obra Menor,53.92,ARAOZ 1665,-58.4235194320163,-34.5911255936982,ARAOZ,1665,Palermo,14
021,033,017,021-033-017,22497842/18,18-21-33-17,2018-11-28,ARAOZ 2846/56,Comuna 14,1425,C1425DGT,Obra Media,1658.51,ARAOZ 2846,-58.412264590810786,-34.5837774631093,ARAOZ,2846,Palermo,14
031,038,009,031-038-009,29899154/17,18-31-38-9,2018-07-11,ARAOZ 639,Comuna 15,1414,C1414DPM,Obra Media,1782.45,ARAOZ 639,-58.4344207096151,-34.59829193676461,ARAOZ,639,Villa Crespo,15
031,050,006,031-050-006,14613156/18,18-31-50-6,2018-09-03,ARAOZ 757,Comuna 15,1414,C1414DPO,Obra Media,2012.4,ARAOZ 757,-58.4331414071216,-34.597470605486606,ARAOZ,757,Villa Crespo,15
 , , , - - ,27124851/16,,2018-02-22,ARAOZ 793,Comuna 15,1414,C1414DPO,Obra Mayor,3639,ARAOZ 793,-58.4327838758856,-34.59724179374409,ARAOZ,793,Villa Crespo,15
062,109,009,062-109-009,29791392/18,1-62-109-09,2019-05-28,ARAUJO 1110/12,Comuna 9,1440,C1440DLN,Obra Menor,110.94,ARAUJO 1110,-58.4959888793272,-34.6481819758514,ARAUJO,1110,Mataderos,9
062,109,012,062-109-012,14805439/17,1-62-109-12,2017-11-30,ARAUJO 1140,Comuna 9,1440,C1440DLN,Obra Menor,472.04,ARAUJO 1140,-58.495779934312715,-34.64834234533889,ARAUJO,1140,Mataderos,9
062,102,013a,062-102-013a,28200848/18,I-62-102-13A,2019-04-12,ARAUJO 1846,Comuna 9,1440,C1440DMB,Obra Media,2403.23,ARAUJO 1846,-58.48804291556071,-34.654353380597804,ARAUJO,1846,Mataderos,9
062,99A,019,062-99A-019,30297930/17,1-62-99A-19,2018-10-11,ARAUJO 2176,Comuna 9,1440,C1440DMH,Obra Media,1300.36,ARAUJO 2176,-58.4840792096749,-34.6574459339533,ARAUJO,2176,Mataderos,9
064,061,001b,064-061-001b,21546548/17,01-64-61-1B,2017-10-30,ARAUJO 2585/87,Comuna 8,1439,C1439FAC,Obra Menor,263,ARAUJO 2585,-58.479585693872615,-34.66104703999789,ARAUJO,2585,Villa Lugano,8
060,085,017,060-085-017,24374797/18,1-60-85-17,2019-01-29,ARAUJO 362,Comuna 10,1408,C1408HSH,Obra Media,988.64,ARAUJO 362,-58.504566846550105,-34.64144349552511,ARAUJO,362,Villa Luro,10
060,79B,008,060-79B-008,28697519/18,1-60-79B-8,2019-01-02,ARAUJO 836,Comuna 9,1440,C1440DLH,Obra Menor,487.28,ARAUJO 836,-58.4994727178541,-34.6454298262056,ARAUJO,836,Mataderos,9
060,078,011,060-078-011,28399313/17,01-60-78-11,2017-12-14,ARAUJO 913,Comuna 9,1440,C1440DLI,Obra Media,1424.63,ARAUJO 913,-58.4985353169645,-34.646325680574,ARAUJO,913,Mataderos,9
072,05B,044,072-05B-044,5374645/19,1-72-5B-44,2019-05-09,ARCE 1013,Comuna 9,1408,C1408FKA,Obra Menor,105.29,"ARCE, MANUEL 1013",-58.5277182841465,-34.650954239578,"ARCE, MANUEL",1013,Liniers,9
023,089,016a,023-089-016a,28071943/17,17-23-89-16a,2019-05-24,ARCE 305,Comuna 14,1426,C1426BSC,Obra Media,1381.24,ARCE 305,-58.4305114441172,-34.5710809255729,ARCE,305,Palermo,14
023,029,12,023-029-12,29746741/17,17-23-29-12/13e,2018-11-26,ARCOS 1165/79,Comuna 14,1426,C1426BGA,Obra Mayor,3790.33,ARCOS 1165,-58.4456817276416,-34.5681219987222,ARCOS,1165,Palermo,14
023,029,13e,023-029-13e,29746741/17,17-23-29-12/13e,2018-11-26,ARCOS 1165/79,Comuna 14,1426,C1426BGA,Obra Mayor,3790.33,ARCOS 1165,-58.4456817276416,-34.5681219987222,ARCOS,1165,Palermo,14
 , , , - - ,39319586/15,,2018-05-18,ARCOS 1191/99,Comuna 14,1426,C1426BGA,Obra Media,2291.37,ARCOS 1191,-58.4459814297211,-34.5679354978415,ARCOS,1191,Palermo,14
025,022,016,025-022-016,32665874/18,16-25-22-16,2019-03-11,ARCOS 1841/47,Comuna 13,1428,C1428AFA,Obra Mayor,3576.98,ARCOS 1841,-58.4517496076703,-34.562744134471195,ARCOS,1841,Belgrano,13
 , , , - - ,15619856/17,,2018-04-19,ARCOS 2966,Comuna 13,1429,C1429AZD,Obra Media,990.22,ARCOS 2966,-58.4609913586777,-34.55218629567,ARCOS,2966,Nuñez,13
027,040,010,027-040-010,12996602/18,16-27-40-10,2018-10-11,ARCOS 3187/89,Comuna 13,1429,C1429AZG,Micro Obra,,ARCOS 3187,-58.4627464789886,-34.550687873981296,ARCOS,3187,Nuñez,13
027,045,019,027-045-019,18499818/16,16-27-45-19,2017-12-22,ARCOS 3419/21,Comuna 13,1429,C1429AZM,Obra Media,1499,ARCOS 3419,-58.46409551145421,-34.5488481317894,ARCOS,3419,Nuñez,13
029,028,020,029-028-020,30846562/18,16-29-28-20,2019-01-02,ARCOS 3726,Comuna 13,1429,C1429AZT,Micro Obra,16.56,ARCOS 3726,-58.4660056156735,-34.546416023968,ARCOS,3726,Nuñez,13
029,049,019,029-049-019,9386442/17,16-29-49-19,2017-09-15,ARCOS 4555,Comuna 13,1429,C1429BAI,Obra Menor,450.8,ARCOS 4555,-58.4704038534711,-34.5403025427295,ARCOS,4555,Nuñez,13
029,051,016,029-051-016,19950677/18,29-051-016,2018-08-28,ARCOS 4705,Comuna 13,1429,C1429BAM,Obra Menor,42.79,ARCOS 4705,-58.4713120753444,-34.539076396237604,ARCOS,4705,Nuñez,13
029,051,011,029-051-011,28028687/17,16-29-51-11,2018-07-04,ARCOS 4763/65,Comuna 13,1429,C1429BAM,Obra Media,690.73,ARCOS 4763,-58.47154913320711,-34.5387563971138,ARCOS,4763,Nuñez,13
007,030,006,007-030-006,27511657/17,20-07-30-06,2018-08-15,ARENALES 1556,Comuna 2,1061,C1061AAR,Obra Mayor,3723.3,ARENALES 1556,-58.3890580891093,-34.59482909655791,ARENALES,1556,Recoleta,2
 , , , - - ,25841831/17,,2018-04-19,ARENALES 2374,Comuna 2,1124,C1124AAL,Obra Mayor,3351.48,ARENALES 2374,-58.4004095381351,-34.5938759195848,ARENALES,2374,Recoleta,2
015,129,002b,015-129-002b,16224460/18,19-15-129-2b,2018-07-04,ARENALES 2638/40,Comuna 2,1425,C1425BED,Obra Media,1119.36,ARENALES 2638,-58.4034690847159,-34.5927610994944,ARENALES,2638,Recoleta,2
057,106,001e,057-106-001e,26087878/17,5-57-106-1e,2018-10-11,ARENGREEN 1202/10,Comuna 6,1405,C1405CYP,Obra Menor,110.37,ARENGREEN 1202,-58.44928874420749,-34.613423242283204,ARENGREEN,1202,Caballito,6
057,096,004,057-096-004,29486451/17,5-57-96-004,2018-10-04,ARENGREEN 1330/34,Comuna 6,1405,C1405CYR,Obra Media,668.96,ARENGREEN 1330,-58.450824232580786,-34.6140564241976,ARENGREEN,1330,Caballito,6
033,071,019,033-071-019,16567404/14,17-33-71-19,2018-07-16,AREVALO 1333,Comuna 14,1414,C1414CQA,Obra Media,1498.01,AREVALO 1333,-58.4441976567867,-34.58437205864289,AREVALO,1333,Palermo,14
 , , , - - ,29860842/17,,2018-02-16,AREVALO 1371/79,Comuna 14,1414,C1414CQA,Obra Mayor,3623.8,AREVALO 1371,-58.4439460790238,-34.5841347136977,AREVALO,1371,Palermo,14
033,071,013,033-071-013,26108721/17,17-33-71-13,2017-12-13,AREVALO 1385,Comuna 14,1414,C1414CQA,Obra Media,1305.84,AREVALO 1385,-58.4438250837369,-34.5840205629409,AREVALO,1385,Palermo,14
033,084,006,033-084-006,2633103/18,15-033-084-006,2019-02-26,AREVALO 1467,Comuna 14,1414,C1414CQC,Obra Menor,267.44,AREVALO 1467,-58.4427405919886,-34.5830530541502,AREVALO,1467,Palermo,14
035,034,021,035-034-021,7470883/16,17-35-34-21,2018-10-16,AREVALO 1729,Comuna 14,1414,C1414CQI,Obra Media,899.14,AREVALO 1729,-58.4400258362417,-34.5806785423333,AREVALO,1729,Palermo,14
 , , , - - ,7141850/13,,2018-05-02,AREVALO 1840,Comuna 14,1414,C1414CQL,Obra Media,1663.9,AREVALO 1840,-58.439202924139614,-34.579807000549394,AREVALO,1840,Palermo,14
 , , , - - ,7143354/13,,2018-04-27,AREVALO 1854/68,Comuna 14,1414,C1414CQL,Obra Mayor,5031.73,AREVALO 1854,-58.43914422831511,-34.579755743095305,AREVALO,1854,Palermo,14
035,076,013,035-076-013,8966926/17,17-35-76-13,2018-10-11,AREVALO 2035/37,Comuna 14,1414,C1414CQO,Obra Media,1751.48,AREVALO 2035,-58.437186453067596,-34.57820200205611,AREVALO,2035,Palermo,14
 , , , - - ,24203636/17,,2018-02-27,ARGAÑARAS 50/54,Comuna 15,1414,C1414BCB,Obra Media,1207.79,ARGAÑARAS 50,-58.427304966927395,-34.5972825219032,ARGAÑARAS,50,Villa Crespo,15
 , , , - - ,9507149/16,,2018-01-29,ARGERICH 1186,Comuna 11,1416,C1416AXB,Obra Media,736.07,ARGERICH 1186,-58.4761454099957,-34.6204158465202,ARGERICH,1186,Villa Santa Rita,11
 , , , - - ,22223819/17,,2018-05-15,ARGERICH 1211/15,Comuna 11,1416,C1416AXC,Obra Menor,241.5,ARGERICH 1211,-58.4764318352469,-34.6199167357967,ARGERICH,1211,Villa Santa Rita,11
067,029,014,067-029-014,24241976/18,15-067-029-014,2018-12-07,ARGERICH 1459,Comuna 11,1416,C1416AXG,Obra Media,2086.7,ARGERICH 1459,-58.47833084638911,-34.61753000830889,ARGERICH,1459,Villa Santa Rita,11
075,032,021,075-032-021,24660160/17,16-75-32-21,2017-12-18,ARGERICH 1618,Comuna 11,1416,C1416AXL,Obra Media,2349.58,ARGERICH 1618,-58.479701847186796,-34.6159444919703,ARGERICH,1618,Villa Santa Rita,11
 , , , - - ,11192956/18,,2018-05-17,ARGERICH 1963/67,Comuna 11,1416,C1416AXQ,Obra Media,1946.27,ARGERICH 1963,-58.482375174070214,-34.6124510032948,ARGERICH,1963,Villa Santa Rita,11
065,022,05d,065-022-05d,9875054/17,05-65-22-05d/06,2018-10-19,ARGERICH 209,Comuna 7,1406,C1406AMA,Obra Mayor,4257.68,ARGERICH 209,-58.4719737297973,-34.6293044275729,ARGERICH,209,Flores,7
065,022,06,065-022-06,9875054/17,05-65-22-05d/06,2018-10-19,ARGERICH 209,Comuna 7,1406,C1406AMA,Obra Mayor,4257.68,ARGERICH 209,-58.4719737297973,-34.6293044275729,ARGERICH,209,Flores,7
069,016,025,069-016-025,17095636/17,15-069-016-025,2017-11-01,ARGERICH 2455/57,Comuna 11,1417,C1417CSA,Obra Media,2457.06,ARGERICH 2455,-58.485967057080295,-34.6079942140503,ARGERICH,2455,Villa Del Parque,11
 , , , - - ,29129593/17,,2018-03-20,ARGERICH 2463/65,Comuna 11,1417,C1417CSA,Obra Media,2040.21,ARGERICH 2463,-58.4860201642712,-34.60792974197831,ARGERICH,2463,Villa Del Parque,11
065,012,018,065-012-018,28649154/17,5-65-12-18,2018-07-24,ARGERICH 266/72,Comuna 7,1406,C1406AMB,Obra Media,1602.87,ARGERICH 266,-58.472137583952104,-34.6291629857794,ARGERICH,266,Flores,7
 , , , - - ,25779403/17,,2018-03-06,ARGERICH 2745/47,Comuna 11,1417,C1417CSG,Obra Menor,348.05,ARGERICH 2745,-58.488472338415,-34.6049520826312,ARGERICH,2745,Villa Del Parque,11
071,021,027,071-021-027,28036642/16,15-71-21-27,2017-12-22,ARGERICH 3116/22,Comuna 11,1417,C1417CTD,Obra Media,1351.68,ARGERICH 3116,-58.4921415433621,-34.6004477176194,ARGERICH,3116,Villa Del Parque,11
071,038,005h,071-038-005h,26014657/16,15-71-38-5h,2019-04-09,ARGERICH 3281,Comuna 11,1417,C1417CTE,Obra Media,919.95,ARGERICH 3281,-58.4937261284947,-34.598224551213,ARGERICH,3281,Villa Del Parque,11
071,038,005h,071-038-005h,26014657/16,15-71-38-5h,2017-11-27,ARGERICH 3281,Comuna 11,1417,C1417CTE,Obra Media,951.52,ARGERICH 3281,-58.4937261284947,-34.598224551213,ARGERICH,3281,Villa Del Parque,11
071,024,002,071-024-002,8934687/17,15-71-24-2,2017-12-29,ARGERICH 3344,Comuna 11,1417,C1417CTH,Obra Media,1092,ARGERICH 3344,-58.49419634180101,-34.5976963885753,ARGERICH,3344,Villa Del Parque,11
 , , , - - ,28376840/17,,2018-03-14,ARGERICH 3348/50,Comuna 11,1417,C1417CTH,Obra Media,1158.32,ARGERICH 3348,-58.4942506852288,-34.59762323626669,ARGERICH,3348,Villa Del Parque,11
073,018,016,073-018-016,7186247/16,16-73-18-16,2018-12-11,ARGERICH 4267/73,Comuna 12,1419,C1419DAI,Obra Media,1040.63,ARGERICH 4267,-58.5004098910775,-34.5904126552798,ARGERICH,4267,Villa Pueyrredon,12
073,020,016,073-020-016,7442861/18,16-73-20-16,2019-04-04,ARGERICH 4457/59,Comuna 12,1419,C1419DAM,Obra Menor,139.57,ARGERICH 4457,-58.50172203569261,-34.5889556251818,ARGERICH,4457,Villa Pueyrredon,12
065,027,011,065-027-011,33973587/18,5-65-27-11,2019-03-21,ARGERICH 775,Comuna 7,1406,C1406AMK,Obra Media,845.7,ARGERICH 775,-58.474486737844295,-34.6239193443835,ARGERICH,775,Flores,7
065,018,033,065-018-033,12647268/18,5-65-18-33,2019-05-21,ARGERICH 880/82,Comuna 7,1406,C1406AMN,Obra Media,915.06,ARGERICH 880,-58.475056602544406,-34.6228942163575,ARGERICH,880,Flores,7
023,080,029d,023-080-029d,23912234/18,17-23-80-29d,2018-11-28,ARGUIBEL 2860/66,Comuna 14,1426,C1426DKB,Obra Mayor,4361.66,"ARGUIBEL, ANDRES 2860",-58.4297845799201,-34.572171936836,"ARGUIBEL, ANDRES",2860,Palermo,14
029,87a,002,029-87a-002,23511015/18,16-29-87a-2,2019-03-07,ARIAS 1720,Comuna 13,1429,C1429DXB,Obra Menor,57.85,ARIAS 1720,-58.466618244511785,-34.5390018020683,ARIAS,1720,Nuñez,13
043,107,001g,043-107-001g,11342493/16,16-43-107-1g,2018-09-13,ARIAS 3010/20,Comuna 12,1429,C1429DYB,Obra Media,1233.92,ARIAS 3010,-58.479217112537405,-34.544289313160604,ARIAS,3010,Saavedra,12
043,108,20e,043-108-20e,19639786/17,16-43-108-20e/20i,2017-12-06,ARIAS 3019/25,Comuna 12,1429,C1429DYA,Obra Media,1836.59,ARIAS 3019,-58.479405278367395,-34.544270242044604,ARIAS,3019,Saavedra,12
043,108,20i,043-108-20i,19639786/17,16-43-108-20e/20i,2017-12-06,ARIAS 3019/25,Comuna 12,1429,C1429DYA,Obra Media,1836.59,ARIAS 3019,-58.479405278367395,-34.544270242044604,ARIAS,3019,Saavedra,12
043,108,016,043-108-016,27509524/17,16-43-108-016,2018-09-28,ARIAS 3083,Comuna 12,1429,C1429DYA,Obra Media,720.96,ARIAS 3083,-58.4799299521879,-34.544443437279604,ARIAS,3083,Saavedra,12
 , , , - - ,30206506/17,,2018-03-21,ARIAS 3164,Comuna 12,1429,C1429DYD,Obra Media,1001.2,ARIAS 3164,-58.4806837391245,-34.5447725619974,ARIAS,3164,Saavedra,12
043,12D,011d,043-12D-011d,29121720/18,16-43-12D-11d,2018-12-18,ARIAS 4005,Comuna 12,1430,C1430CRM,Obra Mayor,70837.32,ARIAS 4005,-58.4887637759387,-34.5488250068261,ARIAS,4005,Saavedra,12
055,158,003,055-158-003,30167652/18,16-055-158-003,2019-02-19,ARIAS 4630,Comuna 12,1430,C1430CSJ,Obra Menor,75.79,ARIAS 4630,-58.4940245615714,-34.551654629047796,ARIAS,4630,Saavedra,12
061,083,031,061-083-031,20730470/17,15-61-83-31,2017-11-15,ARISMENDI 2417,Comuna 15,1427,C1427DLA,Obra Media,1001.63,ARISMENDI 2417,-58.4739060052806,-34.5825144122078,ARISMENDI,2417,Parque Chas,15
061,083,023,061-083-023,24496887/17,15-61-83-23,2017-12-12,ARISMENDI 2489,Comuna 15,1427,C1427DLA,Obra Media,552.51,ARISMENDI 2489,-58.4744561378207,-34.58294216815161,ARISMENDI,2489,Parque Chas,15
 , , , - - ,30398089/17,,2018-06-29,ARISMENDI 2591/97,Comuna 15,1427,C1427DLC,Obra Media,977.36,ARISMENDI 2591,-58.475696650287,-34.5839026326206,ARISMENDI,2591,Parque Chas,15
061,053,004,061-053-004,33131092/18,15-61-53-04,2019-05-14,ARISMENDI 2624,Comuna 15,1427,C1427DLF,Obra Media,1778.67,ARISMENDI 2624,-58.476165476994,-34.584371608492496,ARISMENDI,2624,Parque Chas,15
061,055,007,061-055-007,30295510/17,15-61-55-7,2018-11-29,ARISMENDI 2880/88,Comuna 15,1427,C1427DLJ,Obra Media,917.15,ARISMENDI 2880,-58.478664854136,-34.58631448696891,ARISMENDI,2880,Parque Chas,15
019,091,024,019-091-024,21630337/17,18-19-91-24,2017-11-22,ARMENIA 1936/40,Comuna 14,1414,C1414DKP,Obra Menor,361.65,ARMENIA 1936,-58.42496291142611,-34.5878331897627,ARMENIA,1936,Palermo,14
019,090,013,019-090-013,19769221/17,18-19-90-13,2017-09-14,ARMENIA 1955,Comuna 14,1414,C1414DKO,Obra Media,1338.42,ARMENIA 1955,-58.424726174960696,-34.5877997755763,ARMENIA,1955,Palermo,14
019,117,016,019-117-016,29784487/17,18-19-117-016,2018-07-26,ARMENIA 2141,Comuna 14,1425,C1425FBC,Obra Mayor,3600.99,ARMENIA 2141,-58.4229714058559,-34.58665817081369,ARMENIA,2141,Palermo,14
069,018,033,069-018-033,35380704/18,15-069-018-033,2019-05-10,ARREGUI 2989/93,Comuna 11,1417,C1417GMM,Obra Menor,222.89,ARREGUI 2989,-58.4870622181231,-34.6061937369906,ARREGUI,2989,Villa Del Parque,11
081,042,026,081-042-026,18826599/16,15-81-42-26,2017-10-26,ARREGUI 4191,Comuna 10,1417,C1417GNK,Obra Menor,399.94,ARREGUI 4191,-58.5006447519532,-34.6138973581932,ARREGUI,4191,Monte Castro,10
093,107,025,093-107-025,30064944/18,15-93-107-25,2018-11-13,ARREGUI 6155,Comuna 10,1408,C1408AVQ,Obra Mayor,3049.75,ARREGUI AV. 6155,-58.5212794255388,-34.6277755277211,ARREGUI AV.,6155,Versalles,10
093,093,023,093-093-023,9404912/18,15-93-93-23,2018-07-05,ARREGUI 6225,Comuna 10,1408,C1408AVS,Obra Mayor,2695.5,ARREGUI AV. 6225,-58.5221235734987,-34.6279499356193,ARREGUI AV.,6225,Versalles,10
093,076,001a,093-076-001a,10448629/18,15-93-076-1a,2019-04-04,ARREGUI 6302/10,Comuna 10,1408,C1408AVV,Obra Media,689.45,ARREGUI AV. 6302,-58.5230856150942,-34.6282809367818,ARREGUI AV.,6302,Versalles,10
093,077,022,093-077-022,12625125/17,15-93-077-22,2017-09-05,ARREGUI 6375,Comuna 10,1408,C1408AVU,Obra Mayor,3045.38,ARREGUI AV. 6375,-58.5237020592307,-34.6282795793043,ARREGUI AV.,6375,Versalles,10
 , , , - - ,23360152/17,,2018-06-06,ARRIBEÑOS 2212,Comuna 13,1428,C1428APD,Obra Media,667.68,ARRIBEÑOS 2212,-58.45106641337872,-34.5569768168362,ARRIBEÑOS,2212,Belgrano,13
 , , , - - ,26065234/17,,2018-01-11,ARRIBEÑOS 2578/80,Comuna 13,1428,C1428APJ,Obra Media,1535.7,ARRIBEÑOS 2578,-58.453879388516505,-34.5537167915584,ARRIBEÑOS,2578,Belgrano,13
027,069,033,027-069-033,26242842/17,16-27-69-33,2017-11-13,ARRIBEÑOS 2676,Comuna 13,1428,C1428APL,Obra Media,1435.34,ARRIBEÑOS 2676,-58.454532154975006,-34.5529348375892,ARRIBEÑOS,2676,Belgrano,13
027,071,030,027-071-030,21148445/18,16-27-71-30,2018-08-22,ARRIBEÑOS 2862/66,Comuna 13,1429,C1429BKB,Obra Media,1396.19,ARRIBEÑOS 2862,-58.45612541692449,-34.5510785201576,ARRIBEÑOS,2862,Nuñez,13
024,024,9by15,024-024-9by15,26234769/16,2-24-24-9by15,2018-09-18,ARRIOLA 154/58,Comuna 4,1437,C1437FAD,Obra Mayor,26597.27,ARRIOLA 154,-58.4031136956234,-34.6385650538965,ARRIOLA,154,Parque Patricios,4
 , , , - - ,3796159/17,,2018-05-29,ARRIOLA 29/41,Comuna 4,1437,C1437FAA,Obra Mayor,2845.19,ARRIOLA 29,-58.4029180586973,-34.6371114873227,ARRIOLA,29,Parque Patricios,4
024,026,021b,024-026-021b,10431434/18,2-24-26-21B,2018-08-29,ARRIOLA 89,Comuna 4,1437,C1437FAA,Obra Media,1145.74,ARRIOLA 89,-58.4027969706504,-34.63764401842109,ARRIOLA,89,Parque Patricios,4
067,084,014b,067-084-014b,12847703/18,15-67-84-14b,2018-10-29,ARTIGAS 1143/49,Comuna 11,1416,C1416AKC,Obra Media,1602.79,"ARTIGAS, JOSE GERVASIO, GRAL. 1143",-58.4694353539044,-34.6172964164608,"ARTIGAS, JOSE GERVASIO, GRAL.",1143,Villa Gral. Mitre,11
067,081,006,067-081-006,18794905/18,15-67-81-06,2018-10-16,ARTIGAS 1938/42,Comuna 11,1416,C1416AKT,Obra Menor,461.04,"ARTIGAS, JOSE GERVASIO, GRAL. 1938",-58.4759000172659,-34.6093377269803,"ARTIGAS, JOSE GERVASIO, GRAL.",1938,Villa Gral. Mitre,11
069,061,019,069-061-019,30384208/18,15-69-061-019,2019-03-15,ARTIGAS 2931/35,Comuna 11,1417,C1417DKC,Obra Media,881.2,"ARTIGAS, JOSE GERVASIO, GRAL. 2931",-58.4846104761827,-34.5995634613333,"ARTIGAS, JOSE GERVASIO, GRAL.",2931,Villa Del Parque,11
071,097,019a,071-097-019a,13652892/18,15-71-97-19a,2018-08-31,ARTIGAS 3071,Comuna 11,1417,C1417DKE,Obra Media,1541.76,"ARTIGAS, JOSE GERVASIO, GRAL. 3071",-58.485575773918896,-34.5982715503487,"ARTIGAS, JOSE GERVASIO, GRAL.",3071,Villa Del Parque,11
 , , , - - ,4452591/18,,2018-04-11,ARTIGAS 3132,Comuna 11,1417,C1417DKH,Obra Media,1547.57,"ARTIGAS, JOSE GERVASIO, GRAL. 3132",-58.486035366276504,-34.5977506983211,"ARTIGAS, JOSE GERVASIO, GRAL.",3132,Villa Del Parque,11
 , , , - - ,3870906/18,,2018-06-06,ARTIGAS 367,Comuna 7,1406,C1406ABC,Obra Mayor,3642.2,"ARTIGAS, JOSE GERVASIO, GRAL. 367",-58.4654392697378,-34.626117289320696,"ARTIGAS, JOSE GERVASIO, GRAL.",367,Flores,7
 , , , - - ,30408447/17,,2018-02-16,ARTIGAS 4010,Comuna 15,1419,C1419ECL,Obra Menor,229.02,"ARTIGAS, JOSE GERVASIO, GRAL. 4010",-58.493277509933996,-34.5883790697021,"ARTIGAS, JOSE GERVASIO, GRAL.",4010,Agronomia,15
073,050,002,073-050-002,30015116/17,16-73-50-02,2018-09-28,ARTIGAS 4220/24,Comuna 12,1419,C1419ECP,Obra Media,591.18,"ARTIGAS, JOSE GERVASIO, GRAL. 4220",-58.4945574428742,-34.5869621468711,"ARTIGAS, JOSE GERVASIO, GRAL.",4220,Villa Pueyrredon,12
065,064,030,065-064-030,9410129/18,5-65-64-30,2018-08-23,ARTIGAS 480,Comuna 7,1406,C1406ABF,Obra Media,1627.1,"ARTIGAS, JOSE GERVASIO, GRAL. 480",-58.46602318639,-34.6249881847455,"ARTIGAS, JOSE GERVASIO, GRAL.",480,Flores,7
060,043,013,060-043-013,25244121/18,01-60-43-13,2018-10-10,ARTIGAS 5620,Comuna 9,1440,C1440BRL,Obra Media,1403.94,ARTIGAS MANUEL DE 5620,-58.5004615417674,-34.6477582294521,ARTIGAS MANUEL DE,5620,Mataderos,9
060,043,016,060-043-016,28383219/17,01-60-43-16,2017-12-14,ARTIGAS 5676,Comuna 9,1440,C1440BRL,Obra Media,1400.53,ARTIGAS MANUEL DE 5676,-58.5006518618085,-34.6479339500539,ARTIGAS MANUEL DE,5676,Mataderos,9
074,137,013,074-137-013,34767054/18,1-74-137-13,2019-04-10,ARTIGAS 6020/22,Comuna 9,1440,C1440BRT,Obra Menor,190.4,ARTIGAS MANUEL DE 6020,-58.50356296530229,-34.6506387284063,ARTIGAS MANUEL DE,6020,Mataderos,9
044,138A,002,044-138A-002,30759177/18,1-44-138A-002,2019-01-02,ASAMBLEA 1122/26,Comuna 7,1406,C1406HVO,Obra Menor,93.67,ASAMBLEA AV. 1122,-58.4406302579277,-34.6356906269089,ASAMBLEA AV.,1122,Parque Chacabuco,7
044,096,006,044-096-006,22515682/18,1-44-96-6,2019-04-30,ASAMBLEA 1646,Comuna 7,1406,C1406HVT,Obra Mayor,3199.25,ASAMBLEA AV. 1646,-58.44784918716989,-34.63771111339389,ASAMBLEA AV.,1646,Parque Chacabuco,7
044,97A,034,044-97A-034,32231144/18,1-44-97A-034,2019-05-30,ASAMBLEA 1653/65,Comuna 7,1406,C1406HVG,Obra Media,2060.49,ASAMBLEA AV. 1653,-58.44820777814471,-34.6378083336062,ASAMBLEA AV.,1653,Parque Chacabuco,7
044,096,011,044-096-011,19404428/18,01-44-096-011,2018-11-29,ASAMBLEA 1690/92,Comuna 7,1406,C1406HVT,Obra Media,1398.16,ASAMBLEA AV. 1690,-58.4481406998128,-34.6378607851278,ASAMBLEA AV.,1690,Parque Chacabuco,7
 , , , - - ,23687890/17,,2018-01-19,ASAMBLEA 354,Comuna 7,1424,C1424COQ,Obra Mayor,2717.13,ASAMBLEA AV. 354,-58.4307237327342,-34.632752913930204,ASAMBLEA AV.,354,Parque Chacabuco,7
044,164,013,044-164-013,33083980/18,1-44-164-13,2019-03-27,ASAMBLEA 972/76,Comuna 7,1424,C1424COX,Obra Media,1938.99,ASAMBLEA AV. 972,-58.438407308571996,-34.63524720511809,ASAMBLEA AV.,972,Parque Chacabuco,7
142,05b,,142-05b-,29816699/18,15-61-142-5b-/25b,2019-01-04,ASUNCION 2244/52,Comuna 15,1419,C1419HFD,Obra Mayor,4936.99,ASUNCION 2244,-58.4894816686442,-34.5875306241642,ASUNCION,2244,Agronomia,15
142,05b,25b,142-05b-25b,29816699/18,15-61-142-5b-/25b,2019-01-04,ASUNCION 2244/52,Comuna 15,1419,C1419HFD,Obra Mayor,4936.99,ASUNCION 2244,-58.4894816686442,-34.5875306241642,ASUNCION,2244,Agronomia,15
071,045,011a,071-045-011a,32647626/18,15-71-45-11A,2019-02-15,ASUNCION 2982,Comuna 15,1419,C1419HFR,Obra Menor,120.36,ASUNCION 2982,-58.497934401946296,-34.592764219640195,ASUNCION,2982,Agronomia,15
071,031,024,071-031-024,29340246/17,15-71-31-24,2018-07-18,ASUNCION 3083/85,Comuna 15,1419,C1419HFS,Obra Menor,306.08,ASUNCION 3083,-58.49922800358871,-34.5934668713828,ASUNCION,3083,Agronomia,15
 , , , - - ,27174267/16,,2018-04-17,ASUNCION 3350/54,Comuna 11,1419,C1419HGD,Obra Media,1286.93,ASUNCION 3350,-58.50271731109979,-34.595725100453,ASUNCION,3350,Villa Devoto,11
083,047,001c,083-047-001c,6397425/17,15-83-47-001c,2017-09-06,ASUNCION 4115/27,Comuna 11,1419,C1419HGS,Obra Menor,143.46,ASUNCION 4115,-58.5120289259383,-34.60137790784,ASUNCION,4115,Villa Devoto,11
085,086,008,085-086-008,27930519/16,15-85-86-8,2018-11-20,ATAHUALPA 1653,Comuna 10,1407,C1407CUO,Obra Menor,337.94,ATAHUALPA 1653,-58.4994095474273,-34.621334894088605,ATAHUALPA,1653,Monte Castro,10
085,072,034,085-072-034,29889134/18,15-85-72-34,2019-01-14,ATAHUALPA 1664,Comuna 10,1407,C1407CUP,Obra Media,583.49,ATAHUALPA 1664,-58.499529428701706,-34.62129342688849,ATAHUALPA,1664,Monte Castro,10
 , , , - - ,21660743/17,,2018-02-09,ATENAS 2989,Comuna 15,1431,C1431CYC,Obra Menor,103.43,ATENAS 2989,-58.483477247545395,-34.5831410726447,ATENAS,2989,Parque Chas,15
015,067,037a,015-067-037a,22207260/18,19-15-67-37a,2018-08-22,AUSTRIA 1938/40,Comuna 2,1425,C1425EGF,Obra Mayor,3212.77,AUSTRIA 1938,-58.4059094599887,-34.5893191815423,AUSTRIA,1938,Recoleta,2
058,146,0T001,058-146-0T001,21206257/18,1-58-146-0T001,2018-10-16,AUT.CAMPORA,,,,Obra Mayor,43024.39,AUTOPISTA PRESIDENTE HÉCTOR J. CÁMPORA,,,AUTOPISTA PRESIDENTE HÉCTOR J. CÁMPORA,,,
032,031,017,032-031-017,18402469/17,032-031-017,2018-11-15,AV. BOEDO 1974,Comuna 5,1239,C1239AAW,Micro Obra,,BOEDO AV. 1974,-58.4161232187313,-34.6368254851506,BOEDO AV.,1974,Boedo,5
058,053Q,000C,058-053Q-000C,12549810/18,058-053Q-000C,2018-11-05,AV. CORONEL ROCA 3451,Comuna 8,1437,C1437KAA,Obra Media,1000,"ROCA, CNEL. AV. 3451",-58.4417209930062,-34.6673705796543,"ROCA, CNEL. AV.",3451,Villa Soldati,8
 , , , - - ,6500614/18,,2018-11-15,AV. CORONEL ROCA 3480,Comuna 8,1437,C1437KAN,Obra Mayor,5279.02,"ROCA, CNEL. AV. 3480",-58.4416661165709,-34.667702110420606,"ROCA, CNEL. AV.",3480,Villa Soldati,8
 , , , - - ,26123315/17,,2018-02-09,AV. DE MAYO 866,Comuna 1,1084,C1084AAQ,Obra Mayor,6069.81,DE MAYO AV. 866,-58.378731744311,-34.6089445346602,DE MAYO AV.,866,Monserrat,1
095,030,015,095-030-015,30424263/17,095-030-015,2018-11-08,AV. RIVADAVIA 10699,Comuna 9,1408,C1408AAG,Obra Mayor,2766.67,RIVADAVIA AV. 10699,-58.5142007533761,-34.639143295042,RIVADAVIA AV.,10699,Liniers,9
046,157,002a,046-157-002a,23835699/17,046-157-002A,2018-11-15,AV. SAENZ 1447,Comuna 4,1437,C1437DOG,Obra Menor,299.91,SAENZ AV. 1447,-58.41703137123511,-34.6580686149255,SAENZ AV.,1447,Nueva Pompeya,4
 , , , - - ,24921004/16,,2018-03-21,AV.AVELLANEDA 952/62,Comuna 6,1405,C1405CNW,Obra Mayor,5585.87,AVELLANEDA 952,-58.443979459481795,-34.6167135300146,AVELLANEDA,952,Caballito,6
089,092,017t,089-092-017t,25676300/18,15-89-92-17t,2019-05-02,AV.BEIRO 4639/53,Comuna 11,1419,C1419HZI,Micro Obra,,"BEIRO, FRANCISCO AV. 4639",-58.5161470914505,-34.6084583450556,"BEIRO, FRANCISCO AV.",4639,Villa Devoto,11
002,004,5,002-004-5,20947428/17,13-2-4-5/6/25,2017-10-25,AV.BELGRANO 1746/68,Comuna 1,1093,C1093AAS,Micro Obra,8.42,BELGRANO AV. 1746,-58.3911137664381,-34.613862729881,BELGRANO AV.,1746,Monserrat,1
002,004,6,002-004-6,20947428/17,13-2-4-5/6/25,2017-10-25,AV.BELGRANO 1746/68,Comuna 1,1093,C1093AAS,Micro Obra,8.42,BELGRANO AV. 1746,-58.3911137664381,-34.613862729881,BELGRANO AV.,1746,Monserrat,1
002,004,25,002-004-25,20947428/17,13-2-4-5/6/25,2017-10-25,AV.BELGRANO 1746/68,Comuna 1,1093,C1093AAS,Micro Obra,8.42,BELGRANO AV. 1746,-58.3911137664381,-34.613862729881,BELGRANO AV.,1746,Monserrat,1
 , , , - - ,29868036/17,,2018-03-21,AV.BELGRANO 3673/75,Comuna 5,1210,C1210AAE,Obra Media,1984.15,BELGRANO AV. 3673,-58.418051116494894,-34.6156809506071,BELGRANO AV.,3673,Almagro,5
036,061,013,036-061-013,3913277/17,06-36-061-13,2017-09-15,AV.BELGRANO 4096/00,Comuna 5,1210,C1210AAV,Micro Obra,,BELGRANO 4096,-58.4243663865563,-34.6159255499378,BELGRANO,4096,Almagro,5
 , , , - - ,27246712/17,,2018-02-28,AV.BOEDO 1885/91,Comuna 5,1239,C1239AAI,Obra Media,1249.51,BOEDO AV. 1885,-58.4162848420129,-34.63591092219709,BOEDO AV.,1885,Boedo,5
054,011,023,054-011-023,9221752/16,1-54-11-23,2017-10-12,AV.BRUIX 4360,Comuna 9,1407,C1407IKV,Obra Menor,144.59,BRUIX AV. 4360,-58.4860867050694,-34.647255730325696,BRUIX AV.,4360,Parque Avellaneda,9
023,034,011,023-034-011,18083510/17,17-23-34-11,2017-12-18,AV.CABILDO 1117/23,Comuna 14,1426,C1426AAL,Obra Mayor,3988.2,CABILDO AV. 1117,-58.4472729071589,-34.5686418955965,CABILDO AV.,1117,Palermo,14
 , , , - - ,15217883/17,,2018-03-16,AV.CABILDO 1368/72,Comuna 13,1426,C1426ABN,Obra Mayor,4301.62,CABILDO AV. 1368,-58.4496896997856,-34.567639932062995,CABILDO AV.,1368,Colegiales,13
 , , , - - ,8656685/18,,2018-05-11,AV.CABILDO 20/24,Comuna 14,1426,C1426AAN,Obra Mayor,11945.18,CABILDO AV. 20,-58.43605022844051,-34.5749292360575,CABILDO AV.,20,Palermo,14
 , , , - - ,29706472/17,,2018-04-20,AV.CABILDO 2517/21,Comuna 13,1428,C1428AAH,Obra Mayor,3395.77,CABILDO AV. 2517,-58.459969477967604,-34.5580390430914,CABILDO AV.,2517,Belgrano,13
 , , , - - ,29830015/17,,2018-02-28,AV.CABILDO 3987/99,Comuna 13,1429,C1429AAK,Obra Mayor,4187.84,CABILDO AV. 3987,-58.4696555507995,-34.5468338087435,CABILDO AV.,3987,Nuñez,13
 , , , - - ,6961336/16,,2018-03-12,AV.CABILDO 4496,Comuna 12,1429,C1429ABP,Obra Menor,53.18,CABILDO AV. 4496,-58.4727555336827,-34.5431520358558,CABILDO AV.,4496,Saavedra,12
029,010,008,029-010-008,23173603/17,1-29-010-008,2017-12-14,AV.CABILDO 4693/99,Comuna 13,1429,C1429ABE,Micro Obra,,CABILDO AV. 4693,-58.4735799211775,-34.54157940055,CABILDO AV.,4693,Nuñez,13
 , , , - - ,24904085/15,,2018-04-17,AV.CABILDO 60/68,Comuna 14,1426,C1426AAN,Obra Mayor,12943.11,CABILDO AV. 60,-58.4365897244375,-34.5746440723165,CABILDO AV.,60,Palermo,14
 , , , - - ,11606025/18,,2018-05-21,AV.CALABRIA S/N,,,,Obra Media,1183.92,CALABRIA AV. S/N,,,CALABRIA AV.,0,,
007,003,15,007-003-15,13700780/16,20-07-03-15/16/22,2019-03-18,AV.CALLAO 1055/63,Comuna 2,1023,C1023AAD,Obra Mayor,42767.12,CALLAO AV. 1055,-58.3931628638643,-34.596574568044,CALLAO AV.,1055,Recoleta,2
007,003,16,007-003-16,13700780/16,20-07-03-15/16/22,2019-03-18,AV.CALLAO 1055/63,Comuna 2,1023,C1023AAD,Obra Mayor,42767.12,CALLAO AV. 1055,-58.3931628638643,-34.596574568044,CALLAO AV.,1055,Recoleta,2
007,003,22,007-003-22,13700780/16,20-07-03-15/16/22,2019-03-18,AV.CALLAO 1055/63,Comuna 2,1023,C1023AAD,Obra Mayor,42767.12,CALLAO AV. 1055,-58.3931628638643,-34.596574568044,CALLAO AV.,1055,Recoleta,2
 , , , - - ,30288911/17,,2018-02-16,AV.CALLAO 1834/56,Comuna 2,1024,C1024AAR,Obra Mayor,14076.61,CALLAO AV. 1834,-58.3886781286244,-34.588737191894005,CALLAO AV.,1834,Recoleta,2
011,075,023,011-075-023,7075411/15,19-11-75-23,2017-11-30,AV.CALLAO 924/28,Comuna 2,1023,C1023AAP,Obra Mayor,11357.47,CALLAO AV. 924,-58.393190921850795,-34.598311108337604,CALLAO AV.,924,Recoleta,2
 , , , - - ,29420589/17,,2018-04-06,AV.CHORROARIN 656/62,Comuna 15,1427,C1427CXQ,Obra Media,2452.58,CHORROARIN AV. 656,-58.4735912245077,-34.5895935489932,CHORROARIN AV.,656,Parque Chas,15
044,143A,014,044-143A-014,16816168/18,01-44-143A-014,2018-12-05,AV.COBO 1590,Comuna 7,1406,C1406ILN,Obra Menor,50.81,COBO AV. 1590,-58.43752814534,-34.642843119785496,COBO AV.,1590,Parque Chacabuco,7
044,131,fracc a,044-131-fracc a,10444165/14,1-44-131-FRACC A,2019-01-31,AV.COBO 1631/93,Comuna 7,1406,C1406ILB,Obra Mayor,23717.64,COBO AV. 1631,-58.4386531352814,-34.642935623241804,COBO AV.,1631,Parque Chacabuco,7
041,133,006,041-133-006,16838162/17,16-41-133-6,2017-09-15,AV.CONGRESO 2650/50a,Comuna 13,1428,C1428BVP,Obra Mayor,2661.04,CONGRESO AV. 2650,-58.4647878741345,-34.55671026336,CONGRESO AV.,2650,Belgrano,13
053,043,001a,053-043-001a,12671344/17,16-53-043-001A,2017-09-28,AV.CONGRESO 4606,Comuna 12,1431,C1431AAO,Obra Menor,102.58,CONGRESO AV. 4606,-58.48480383950072,-34.5669917861516,CONGRESO AV.,4606,Villa Urquiza,12
 , , , - - ,3592591/14,,2018-04-16,AV.CONGRESO 4767/71,Comuna 12,1431,C1431AAC,Obra Mayor,2591.75,CONGRESO AV. 4767,-58.4863056923168,-34.567624978009,CONGRESO AV.,4767,Villa Urquiza,12
 , , , - - ,10271478/18,,2018-05-23,AV.CORDOBA 120/80,Comuna 1,1054,C1054AAN,Obra Mayor,67315.59,CORDOBA AV. 120,-58.370229590937996,-34.598435894278005,CORDOBA AV.,120,San Nicolas,1
019,001,026a,019-001-026a,9370981/17,019-001-026A,2017-10-17,AV.CORDOBA 3609/19,Comuna 14,1188,C1188AAC,Obra Mayor,7598.5,CORDOBA AV. 3609,-58.4175183899447,-34.5977329000782,CORDOBA AV.,3609,Palermo,14
031,113,014,031-113-014,38213077/15,18-31-113-14,2017-11-02,AV.CORDOBA 5151/57,Comuna 14,1414,C1414BAJ,Obra Media,2153.6,CORDOBA AV. 5151,-58.4356499705556,-34.59049126708389,CORDOBA AV.,5151,Palermo,14
 , , , - - ,19512803/17,,2018-02-27,AV.CORDOBA 5515/27,Comuna 14,1414,C1414BBB,Obra Mayor,4228.45,CORDOBA AV. 5515,-58.439534738828705,-34.5879034343413,CORDOBA AV.,5515,Palermo,14
033,068,028,033-068-028,39613/16,17-33-68-28,2017-10-20,AV.CORDOBA 5635/37,Comuna 14,1414,C1414BBC,Obra Media,2278.82,CORDOBA AV. 5635,-58.4405935252382,-34.587201100867404,CORDOBA AV.,5635,Palermo,14
 , , , - - ,16242058/16,,2018-05-17,AV.CORDOBA 5653/99,Comuna 14,1414,C1414BBC,Obra Media,650.7,CORDOBA AV. 5653,-58.4409631303395,-34.5869568038064,CORDOBA AV.,5653,Palermo,14
 , , , - - ,19073851/17,,2018-03-08,AV.CORDOBA 5761/65,Comuna 14,1414,C1414BBD,Obra Mayor,9722.48,CORDOBA AV. 5761,-58.4418997810344,-34.5863364826315,CORDOBA AV.,5761,Palermo,14
033,061,005,033-061-005,37695397/15,17-33-61-5,2017-09-11,AV.CORDOBA 6138,Comuna 15,1427,C1427BZO,Obra Menor,286.42,CORDOBA AV. 6138,-58.446978045872704,-34.5836708372416,CORDOBA AV.,6138,Chacarita,15
001,024,002c,001-024-002c,14803763/17,14-01-24-2c,2017-11-21,AV.CORDOBA 618,Comuna 1,1054,C1054AAS,Obra Mayor,2567.2,CORDOBA AV. 618,-58.375733296053,-34.59881447993591,CORDOBA AV.,618,San Nicolas,1
 , , , - - ,10810976/17,,2018-04-27,AV.CORDOBA 626/28,Comuna 1,1054,C1054AAS,Obra Mayor,2712.52,CORDOBA AV. 626,-58.375903403559896,-34.598826388130306,CORDOBA AV.,626,San Nicolas,1
005,047,027,005-047-027,15890639/17,14-5-47-27,2017-09-28,AV.CORRIENTES 1217/21,Comuna 1,1043,C1043AAM,Obra Menor,37.54,CORRIENTES AV. 1217,-58.3839895266708,-34.60376047629409,CORRIENTES AV.,1217,San Nicolas,1
013,040,19a29,013-040-19a29,1024520/15,9-13-40-19a29,2017-10-05,AV.CORRIENTES 3401/19,Comuna 5,1194,C1194AAA,Obra Mayor,12377.1,CORRIENTES AV. 3401,-58.4132915857601,-34.6040588007153,CORRIENTES AV.,3401,Almagro,5
031,005,020a,031-005-020a,15574944/17,18-31-005-20a,2017-09-22,AV.CORRIENTES 5431/43,Comuna 15,1414,C1414AJH,Obra Mayor,12465.56,CORRIENTES AV. 5431,-58.4408400144103,-34.597852610204,CORRIENTES AV.,5431,Villa Crespo,15
001,005,029,001-005-029,15848522/17,14-1-5-29,2017-10-02,AV.CORRIENTES 825/35,Comuna 1,1043,C1043AAI,Obra Media,1122,CORRIENTES AV. 825,-58.378548104871996,-34.6034348327475,CORRIENTES AV.,825,San Nicolas,1
 , , , - - ,30030358/17,,2018-03-12,AV.DE LOS INCAS 3601,Comuna 15,1427,C1427DNB,Obra Menor,356.33,DE LOS INCAS AV. 3601,-58.46438418961411,-34.5755469023384,DE LOS INCAS AV.,3601,Villa Ortuzar,15
061,125,019,061-125-019,14540527/17,15-61-125-19,2017-10-11,AV.DE LOS INCAS 5415,Comuna 15,1427,C1427DOG,Obra Media,1946.64,DE LOS INCAS AV. 5415,-58.483672470077295,-34.5882454470078,DE LOS INCAS AV.,5415,Parque Chas,15
012,058,004,012-058-004,10760099/18,13-12-58-04,2018-07-16,AV.DE MAYO 1137/45,Comuna 1,1085,C1085ABB,Obra Mayor,9093,DE MAYO AV. 1137,-58.3826314905317,-34.60905743130529,DE MAYO AV.,1137,Monserrat,1
 , , , - - ,29887691/17,,2018-03-16,AV.DIRECTORIO 1005/09,Comuna 6,1424,C1424CIK,Obra Media,1847.73,DIRECTORIO AV. 1005,-58.4418681306264,-34.6291233132742,DIRECTORIO AV.,1005,Caballito,6
015,114,003g,015-114-003g,23716889/17,19-15-114-3g,2017-12-06,AV.DIRECTORIO 1559,Comuna 6,1406,C1406GZE,Obra Mayor,4969.82,DIRECTORIO AV. 1559,-58.4489339155766,-34.6301681474012,DIRECTORIO AV.,1559,Caballito,6
 , , , - - ,30049951/17,,2018-04-17,AV.DIRECTORIO 2917/19,Comuna 7,1406,C1406HAF,Obra Media,1658.81,DIRECTORIO AV. 2917,-58.46792985878179,-34.635555102403195,DIRECTORIO AV.,2917,Flores,7
054,202,005,054-202-005,12291531/17,1-54-202-5,2017-10-03,AV.DIRECTORIO 3236/38,Comuna 9,1406,C1406HAV,Obra Mayor,2590.41,DIRECTORIO AV. 3236,-58.4718046941511,-34.6368962875845,DIRECTORIO AV.,3236,Parque Avellaneda,9
 , , , - - ,27955256/17,,2018-04-11,AV.DIRECTORIO 402/24,Comuna 7,1424,C1424CIR,Obra Mayor,14897.43,DIRECTORIO AV. 402,-58.4324368860493,-34.62789057354891,DIRECTORIO AV.,402,Parque Chacabuco,7
081,120,004,081-120-004,22232955/16,15-81-120-004,2017-09-22,AV.F.BEIRO 3532,Comuna 11,1419,C1419HYW,Obra Media,1937.95,"BEIRO, FRANCISCO AV. 3532",-58.5025352274903,-34.6002019030915,"BEIRO, FRANCISCO AV.",3532,Villa Del Parque,11
081,078,015,081-078-015,26979930/16,15-81-78-15,2017-10-10,AV.F.BEIRO 3850/60,Comuna 11,1419,C1419HZN,Obra Mayor,3615.73,"BEIRO, FRANCISCO AV. 3850",-58.5067890610195,-34.6028309854925,"BEIRO, FRANCISCO AV.",3850,Villa Devoto,11
057,123,011,057-123-011,15094285/17,5-57-123-11,2017-11-16,AV.GAONA 1320/28,Comuna 6,1416,C1416DRO,Obra Mayor,4068.95,GAONA AV. 1320,-58.447977608624704,-34.608468221364696,GAONA AV.,1320,Caballito,6
065,098,010,065-098-010,30377337/18,5-65-98-10,2019-01-03,AV.GAONA 2956/58,Comuna 7,1416,C1416DSR,Obra Media,1778.73,GAONA AV. 2956,-58.46725743029899,-34.6170610403052,GAONA AV.,2956,Flores,7
 , , , - - ,26717902/17,,2018-03-19,AV.GAONA 3402/06,Comuna 7,1416,C1416DSW,Obra Media,1543.2,GAONA AV. 3402,-58.473051717809106,-34.6200083258976,GAONA AV.,3402,Flores,7
065,040,001a,065-040-001a,5168702/17,5-65-040-001A,2017-10-05,AV.GAONA 3402/06,Comuna 7,1416,C1416DSW,Obra Media,1431.34,GAONA AV. 3402,-58.473051717809106,-34.6200083258976,GAONA AV.,3402,Flores,7
067,001,033,067-001-033,34181627/18,15-67-01-33,2019-05-10,AV.GAONA 3701/07,Comuna 11,1416,C1416DSM,Obra Mayor,2697.72,GAONA AV. 3701,-58.47694944798929,-34.621838760264694,GAONA AV.,3701,Villa Santa Rita,11
079,010,026,079-010-026,26362285/16,15-79-10-26,2017-11-08,AV.GAONA 3945/47,Comuna 11,1407,C1407FIB,Obra Media,998.52,GAONA AV. 3945,-58.480171628827,-34.62343739264211,GAONA AV.,3945,Villa Santa Rita,11
038,189,018a,038-189-018a,16823245/14,1-38-189-18a,2018-08-16,AV.LA PLATA 2984,Comuna 4,1437,C1437DHU,Obra Mayor,4212,LA PLATA AV. 2984,-58.416699197883204,-34.6481631705703,LA PLATA AV.,2984,Nueva Pompeya,4
 , , , - - ,21100695/16,,2018-03-19,AV.LA PLATA 575/87,Comuna 6,1235,C1235ABC,Obra Menor,207.52,LA PLATA AV. 575,-58.42796050270911,-34.6218055645937,LA PLATA AV.,575,Caballito,6
036,009,022,036-009-022,23586578/18,06-36-009-022/023/024,2019-05-09,AV.LA PLATA 694,Comuna 5,1235,C1235ABQ,Obra Media,726.4,LA PLATA AV. 694,-58.4274122780925,-34.623456277481196,LA PLATA AV.,694,Boedo,5
036,009,023,036-009-023,23586578/18,06-36-009-022/023/024,2019-05-09,AV.LA PLATA 694,Comuna 5,1235,C1235ABQ,Obra Media,726.4,LA PLATA AV. 694,-58.4274122780925,-34.623456277481196,LA PLATA AV.,694,Boedo,5
036,009,024,036-009-024,23586578/18,06-36-009-022/023/024,2019-05-09,AV.LA PLATA 694,Comuna 5,1235,C1235ABQ,Obra Media,726.4,LA PLATA AV. 694,-58.4274122780925,-34.623456277481196,LA PLATA AV.,694,Boedo,5
 , , , - - ,18314693/14,,2018-03-15,AV.LA PLATA 827,Comuna 6,1235,C1235ABF,Obra Menor,227.42,LA PLATA AV. 827,-58.4271852321239,-34.625560046465004,LA PLATA AV.,827,Caballito,6
015,032,027,015-032-027,11552410/17,19-15-32-27,2017-10-25,AV.LAS HERAS 3071/99,Comuna 14,1425,C1425ASH,Obra Menor,58.79,LAS HERAS GENERAL AV. 3071,-58.4047520948655,-34.5833306067295,LAS HERAS GENERAL AV.,3071,Palermo,14
021,040,020a,021-040-020a,22790384/16,31-21-40-20a,2017-09-05,AV.LAS HERAS 3337/47,Comuna 14,1425,C1425ASK,Obra Mayor,11130.75,LAS HERAS GENERAL AV. 3337,-58.407524598339,-34.5829325826154,LAS HERAS GENERAL AV.,3337,Palermo,14
027,090,016,027-090-016,15775842/17,16-27-090-016,2017-09-22,AV.MONROE 1551/55,Comuna 13,1428,C1428BKQ,Obra Media,1960.92,MONROE 1551,-58.451684796170504,-34.5533326068191,MONROE,1551,Belgrano,13
 , , , - - ,12609460/17,,2018-04-11,AV.MOSCONI 2467/71,Comuna 12,1419,C1419EQD,Obra Menor,78.58,MOSCONI GENERAL AV. 2467,-58.4973766401031,-34.5832090079213,MOSCONI GENERAL AV.,2467,Villa Pueyrredon,12
073,047,027,073-047-027,19246895/17,16-73-47-27,2017-10-18,AV.MOSCONI 2631,Comuna 12,1419,C1419EQF,Obra Media,2048.02,MOSCONI GENERAL AV. 2631,-58.499334169833794,-34.5844231855299,MOSCONI GENERAL AV.,2631,Villa Pueyrredon,12
073,031,022h,073-031-022h,16287685/17,16-73-31-22h,2017-09-19,AV.MOSCONI 2835/49,Comuna 12,1419,C1419EQH,Micro Obra,3.5,MOSCONI GENERAL AV. 2835,-58.501503418981706,-34.5857627028995,MOSCONI GENERAL AV.,2835,Villa Pueyrredon,12
073,030,007,073-030-007,13648702/17,16-73-030-007,2017-11-08,AV.MOSCONI 2870/72,Comuna 12,1419,C1419EQU,Obra Mayor,2681.86,MOSCONI GENERAL AV. 2870,-58.5016726525199,-34.58607207652509,MOSCONI GENERAL AV.,2870,Villa Pueyrredon,12
067,31A,011c,067-31A-011c,24432071/16,15-67-31A-11C,2017-11-30,AV.NAZCA 1614/18,Comuna 11,1416,C1416ASS,Obra Media,641.54,NAZCA AV. 1614,-58.47844880018821,-34.61530556927891,NAZCA AV.,1614,Villa Santa Rita,11
067,044,014,067-044-014,17536840/15,15-67-44-14,2017-11-16,AV.NAZCA 1753/55,Comuna 11,1416,C1416ASG,Obra Media,559.75,NAZCA AV. 1753,-58.4793549825387,-34.6138502132086,NAZCA AV.,1753,Villa Santa Rita,11
067,034,040,067-034-040,10903595/17,15-67-034-040,2017-10-30,AV.NAZCA 1950,Comuna 11,1416,C1416ASV,Obra Media,2351.21,NAZCA AV. 1950,-58.4810859086849,-34.6119894743044,NAZCA AV.,1950,Villa Santa Rita,11
025,012,002,025-012-002,34742788/15,16-25-12-02,2017-10-26,AV.OLAZABAL 2254/66,Comuna 13,1428,C1428DHR,Obra Mayor,6778.33,OLAZABAL 2254,-58.4568116738851,-34.5593194673094,OLAZABAL,2254,Belgrano,13
008,063,005,008-063-005,18070673/17,03-08-63-05,2017-09-22,AV.PATRICIOS 30/34,Comuna 4,1265,C1265ADN,Obra Media,566.29,REGIMIENTO DE PATRICIOS AV. 30,-58.370544854575996,-34.629849493321096,REGIMIENTO DE PATRICIOS AV.,30,Boca,4
011,003,017e,011-003-017e,27060075/16,19-11-03-17E,2017-10-26,AV.PUEYRREDON 1233/39,Comuna 2,1118,C1118AAC,Obra Mayor,3355.85,PUEYRREDON AV. 1233,-58.402895549361,-34.5963149683258,PUEYRREDON AV.,1233,Recoleta,2
 , , , - - ,29115038/17,,2018-02-22,AV.RIESTRA 5995/99,Comuna 8,1439,C1439BYK,Obra Media,2058.21,RIESTRA AV. 5995,-58.4773547875667,-34.678938061349605,RIESTRA AV.,5995,Villa Lugano,8
 , , , - - ,29882153/17,,2018-03-13,AV.RIVADAVIA 10148/52,Comuna 10,1408,C1408AAO,Obra Media,1879.23,RIVADAVIA AV. 10148,-58.5065662158502,-34.638616323326,RIVADAVIA AV.,10148,Villa Luro,10
054,158,001a,054-158-001a,5792658/15,1-54-158-1a,2017-10-25,AV.RIVADAVIA 8202/06,Comuna 10,1407,C1407DYR,Obra Media,1316.62,RIVADAVIA AV. 8202,-58.479002371636,-34.63323878140189,RIVADAVIA AV.,8202,Floresta,10
054,158,004,054-158-004,21580477/17,01-54-158-04,2017-11-27,AV.RIVADAVIA 8224/28,Comuna 10,1407,C1407DYR,Obra Media,2395.53,RIVADAVIA AV. 8224,-58.479264858025296,-34.6333022272768,RIVADAVIA AV.,8224,Floresta,10
077,042,018,077-042-018,21993470/17,1-77-42-18,2017-09-27,AV.RIVADAVIA 8879/81,Comuna 10,1407,C1407DYK,Obra Mayor,2713.3,RIVADAVIA AV. 8879,-58.4891002958406,-34.6354176524785,RIVADAVIA AV.,8879,Velez Sarsfield,10
005,066,019,005-066-019,39251637/15,14-05-66-19,2017-10-05,AV.RIVADAVIA 943/49,Comuna 1,1002,C1002AAH,Obra Mayor,3418.19,RIVADAVIA AV. 943,-58.3798251281763,-34.608300736709104,RIVADAVIA AV.,943,San Nicolas,1
060,106,003,060-106-003,29510874/17,01-60-106-03,2017-12-21,AV.RIVADAVIA 9954/56,Comuna 10,1407,C1407DZV,Obra Mayor,3315.25,RIVADAVIA AV. 9954,-58.5042337023987,-34.6382358942585,RIVADAVIA AV.,9954,Villa Luro,10
058,0532,PLZ1,058-0532-PLZ1,27542262/18,58-0532-PLZ1,2018-10-29,AV.ROCA 3450,Comuna 8,1437,C1437KAA,Obra Mayor,12824.85,"ROCA, CNEL. AV. 3450",-58.4412525342152,-34.667315182627,"ROCA, CNEL. AV.",3450,Villa Soldati,8
059,015,003,059-015-003,6912477/17,15-059-015-3,2017-09-14,AV.SAN MARTIN 3420/26,Comuna 15,1416,C1416CSW,Obra Media,2330.08,SAN MARTIN AV. 3420,-58.4715828442575,-34.60135532719349,SAN MARTIN AV.,3420,Paternal,15
 , , , - - ,29889771/17,,2018-04-05,AV.SAN MARTIN 5694,Comuna 11,1417,C1417DTQ,Obra Mayor,7051.94,SAN MARTIN AV. 5694,-58.496618889379995,-34.5969201279973,SAN MARTIN AV.,5694,Villa Del Parque,11
 , , , - - ,30339533/17,,2018-04-09,AV.SAN MARTIN 6322/42,Comuna 11,1419,C1419ICN,Obra Mayor,4540.4,SAN MARTIN AV. 6322,-58.5044829213466,-34.5942613385474,SAN MARTIN AV.,6322,Villa Devoto,11
 , , , - - ,20370009/17,,2018-04-27,AV.TRIUNVIRATO 3290,Comuna 15,1427,C1427AAS,Obra Media,1133.64,TRIUNVIRATO AV. 3290,-58.4683985647736,-34.583544139889085,TRIUNVIRATO AV.,3290,Villa Ortuzar,15
049,48A,013c,049-48A-013c,22799850/17,15-49-48A-13C,2017-10-11,AV.TRIUNVIRATO 4021,Comuna 15,1431,C1431FBD,Obra Mayor,3113.44,TRIUNVIRATO AV. 4021,-58.4776562326408,-34.5793386742872,TRIUNVIRATO AV.,4021,Villa Ortuzar,15
063,122,017,063-122-017,28525377/15,16-63-122-017,2017-10-10,AV.TRIUNVIRATO 5759,Comuna 12,1431,C1431FCK,Obra Media,1249.05,TRIUNVIRATO AV. 5759,-58.4951294611444,-34.565456700803,TRIUNVIRATO AV.,5759,Villa Urquiza,12
063,11A,035,063-11A-035,19987767/17,16-63-11A-35,2017-10-25,AV.TRIUNVIRATO 5834,Comuna 12,1431,C1431FCY,Obra Menor,467.25,TRIUNVIRATO AV. 5834,-58.4960169485744,-34.5644395404103,TRIUNVIRATO AV.,5834,Villa Urquiza,12
061,045,016,061-045-016,30385433/18,15-61-45-16,2018-12-11,AVALOS 1105/11,Comuna 15,1427,C1427AXO,Obra Media,738.4,AVALOS 1105,-58.474826555975284,-34.58696185096391,AVALOS,1105,Parque Chas,15
061,054,044,061-054-044,18991212/18,15-61-54-44,2018-07-30,AVALOS 1282,Comuna 15,1427,C1427AXR,Obra Media,1245.69,AVALOS 1282,-58.476885695654104,-34.5854480231838,AVALOS,1282,Parque Chas,15
051,50B,013,051-50B-013,34663592/18,16-51-50B-13,2019-05-15,AVALOS 1821,Comuna 12,1431,C1431DPI,Obra Media,1006.22,AVALOS 1821,-58.4813022340714,-34.580101527857195,AVALOS,1821,Villa Urquiza,12
051,50B,012,051-50B-012,27489043/16,51-50B-12,2018-12-18,AVALOS 1829/31,Comuna 12,1431,C1431DPI,Obra Media,1518.04,AVALOS 1829,-58.481356217148196,-34.5800387150311,AVALOS,1829,Villa Urquiza,12
051,046,037,051-046-037,31238910/18,16-51-46-37,2019-01-02,AVALOS 2058,Comuna 12,1431,C1431DPN,Obra Media,2406.48,AVALOS 2058,-58.48339253866429,-34.5777804031452,AVALOS,2058,Villa Urquiza,12
061,020,012,061-020-012,30036112/17,15-61-20-12,2018-07-16,AVALOS 783,Comuna 15,1427,C1427AXG,Obra Media,569.59,AVALOS 783,-58.471101575386804,-34.5890792773652,AVALOS,783,Paternal,15
 , , , - - ,3347896/18,,2018-02-28,AVALOS 832,Comuna 15,1427,C1427AXJ,Obra Menor,262.76,AVALOS 832,-58.4714878361017,-34.588737584762804,AVALOS,832,Paternal,15
044,136A,003a,044-136A-003a,26346499/18,1-44-136A-3a,2018-11-22,AVELINO DIAZ 1416/22,Comuna 7,1406,C1406IBD,Micro Obra,,"DIAZ, AVELINO 1416",-58.4403003344063,-34.6375450839832,"DIAZ, AVELINO",1416,Parque Chacabuco,7
 , , , - - ,9036150/18,,2018-06-13,AVELLANEDA,,,,Obra Mayor,24220.85,AVELLANEDA,,,AVELLANEDA,,,
077,141,008a,077-141-008a,26591037/17,1-77-141-8A,2019-01-11,AVELLANEDA,,,,Obra Menor,96.41,AVELLANEDA,,,AVELLANEDA,,,
 , , , - - ,12712558/18,,2018-05-22,AVELLANEDA 1089/91,Comuna 6,1405,C1405CNK,Obra Media,1873.26,AVELLANEDA 1089,-58.4462482210425,-34.6174194647324,AVELLANEDA,1089,Caballito,6
057,084,014c,057-084-014c,29561191/17,5-57-084-014C,2018-10-12,AVELLANEDA 1295/01,Comuna 6,1405,C1405CNM,Obra Mayor,5295.19,AVELLANEDA AV. 1295,-58.4501475065604,-34.6187378532447,AVELLANEDA AV.,1295,Caballito,6
 , , , - - ,9036079/18,,2018-06-11,AVELLANEDA 1344/400,Comuna 6,1405,C1405CON,Obra Mayor,57211.74,AVELLANEDA AV. 1344,-58.4508414480447,-34.6192252622618,AVELLANEDA AV.,1344,Caballito,6
 , , , - - ,9036563/18,,2018-06-11,AVELLANEDA 1410/500,Comuna 6,1405,C1405COO,Obra Mayor,57070.95,AVELLANEDA AV. 1410,-58.4516093524418,-34.6194734621039,AVELLANEDA AV.,1410,Caballito,6
045,128,006a,045-128-006a,18814512/18,7-45-128-006a,2018-10-04,AVELLANEDA 144/46,Comuna 6,1405,C1405CNO,Obra Mayor,2795.95,AVELLANEDA 144,-58.4323229568275,-34.61183329283809,AVELLANEDA,144,Caballito,6
061,18a,019a,061-18a-019a,9431773/18,05-57-61-18a-19a,2019-02-25,AVELLANEDA 1549/61,Comuna 6,1406,C1406FYA,Obra Mayor,5942.66,AVELLANEDA AV. 1549,-58.453341430470196,-34.62013979582069,AVELLANEDA AV.,1549,Caballito,6
 , , , - - ,11546252/17,,2018-02-08,AVELLANEDA 1980,Comuna 7,1406,C1406FYR,Obra Mayor,9425.72,AVELLANEDA AV. 1980,-58.459076771067494,-34.62235955648741,AVELLANEDA AV.,1980,Flores,7
065,102,004,065-102-004,26217127/15,5-65-102-4,2019-05-24,AVELLANEDA 2282,Comuna 7,1406,C1406FYU,Obra Media,2391.72,AVELLANEDA AV. 2282,-58.4629935723236,-34.62372330243989,AVELLANEDA AV.,2282,Flores,7
 , , , - - ,30071070/17,,2018-06-01,AVELLANEDA 2427/31,Comuna 7,1406,C1406FYJ,Obra Mayor,3349.52,AVELLANEDA AV. 2427,-58.464978692692,-34.624218590778604,AVELLANEDA AV.,2427,Flores,7
045,117,010a,045-117-010a,11991336/18,7-45-117-10a,2018-11-01,AVELLANEDA 260/78,Comuna 6,1405,C1405CNP,Obra Mayor,4998.44,AVELLANEDA 260,-58.4342080269493,-34.6126259486891,AVELLANEDA,260,Caballito,6
065,035,010e,065-035-010e,31620466/18,5-65-35-10E,2019-01-15,AVELLANEDA 2821/23,Comuna 7,1406,C1406FZA,Obra Menor,425.52,AVELLANEDA AV. 2821,-58.4706385145768,-34.6259924627276,AVELLANEDA AV.,2821,Flores,7
 , , , - - ,28117800/16,,2018-05-14,AVELLaneda 3262/64,Comuna 10,1406,C1406FZR,Obra Menor,189.69,AVELLANEDA AV. 3262,-58.476129076050704,-34.627703941451394,AVELLANEDA AV.,3262,Floresta,10
045,105,029a,045-105-029a,24062496/18,3-45-105-29a,2019-01-02,AVELLANEDA 335,Comuna 6,1405,C1405CND,Obra Mayor,5437.39,AVELLANEDA 335,-58.435288403552896,-34.6129641121512,AVELLANEDA,335,Caballito,6
 , , , - - ,3899054/18,,2018-04-18,AVELLANEDA 3480/88,Comuna 10,1407,C1407EJO,Obra Menor,440.62,AVELLANEDA AV. 3480,-58.478458982018005,-34.6282843248416,AVELLANEDA AV.,3480,Floresta,10
045,083,003,045-083-003,14614920/18,7-45-83-3,2018-08-09,AVELLANEDA 469/71,Comuna 6,1405,C1405CNE,Obra Menor,245,AVELLANEDA 469,-58.4371902803281,-34.6137591438872,AVELLANEDA,469,Caballito,6
045,45A,034,045-45A-034,16159388/18,07-45-45A-34,2019-04-12,AVELLANEDA 711,Comuna 6,1405,C1405CNH,Obra Media,2216.56,AVELLANEDA 711,-58.440978776117795,-34.6149661570475,AVELLANEDA,711,Caballito,6
045,45B,034,045-45B-034,6159388/18,07-45-45B-34,2018-11-07,AVELLANEDA 711/15,Comuna 6,1405,C1405CNH,Micro Obra,,AVELLANEDA 711,-58.440978776117795,-34.6149661570475,AVELLANEDA,711,Caballito,6
037,103,021,037-103-021,35997600/15,037-103-021,2018-11-01,"AVILES, VIRREY 2985",Comuna 13,1426,C1426EEA,Obra Media,903.45,"AVILES, VIRREY 2985",-58.4570019367699,-34.5712616738195,"AVILES, VIRREY",2985,Colegiales,13
 , , , - - ,20597378/17,,2018-03-19,AYACUCHO 150/96,Comuna 3,1025,C1025AAD,Obra Mayor,25774.62,AYACUCHO 150,-58.3950512360965,-34.607407918891305,AYACUCHO,150,Balvanera,3
010,029,026,010-029-026,12957016/17,01-010-029-026,2017-11-22,AZARA 1447,Comuna 4,1269,C1269AAE,Obra Menor,68.51,AZARA 1447,-58.3699558989166,-34.6456256813099,AZARA,1447,Barracas,4
011,034,021,011-034-021,15728596/18,19-11-34-21,2018-11-06,AZCUENAGA 1295/99,Comuna 2,1115,C1115AAI,Obra Menor,54.46,AZCUENAGA 1295,-58.3991207192097,-34.5934030013143,AZCUENAGA,1295,Recoleta,2
011,037,011b,011-037-011b,10348520/17,19-11-37-11b,2017-09-08,AZCUENAGA 1673,Comuna 2,1128,C1128AAA,Obra Media,1320.88,AZCUENAGA 1673,-58.3968926443227,-34.58991307815,AZCUENAGA,1673,Recoleta,2
011,039,012,011-039-012,25626437/17,19-11-39-12,2018-08-09,AZCUENAGA 1853,Comuna 2,1128,C1128AAE,Obra Media,1855.19,AZCUENAGA 1853,-58.395573794056794,-34.58826865564091,AZCUENAGA,1853,Recoleta,2
004,047,010,004-047-010,23074428/18,12-04-47-10,2019-05-31,AZOPARDO 1337/55,Comuna 1,1107,C1107ADW,Micro Obra,,AZOPARDO 1337,-58.3667791030432,-34.623291682795504,AZOPARDO,1337,San Telmo,1
054,180,040,054-180-040,23635284/18,1-54-180-40,2018-10-19,AZUL 169/71,Comuna 10,1407,C1407KHC,Obra Media,1927.71,AZUL 169,-58.4747556907343,-34.6344318832162,AZUL,169,Floresta,10
009,074,002c,009-074-002c,12702295/18,11-09-074-2C,2019-02-22,B. MITRE 1820,Comuna 3,1039,C1039AAB,Micro Obra,,"MITRE, BARTOLOME 1820",-58.3924758307316,-34.60804507693591,"MITRE, BARTOLOME",1820,Balvanera,3
009,002,021,009-002-021,30981088/18,11-09-02-21,2019-01-02,B. MITRE 2715,Comuna 3,1039,C1039AAS,Obra Media,538.21,"MITRE, BARTOLOME 2715",-58.404903376061704,-34.6087384466077,"MITRE, BARTOLOME",2715,Balvanera,3
079,051,033e,079-051-033e,11478976/17,15-79-51-33e,2019-02-15,B.BLANCA 1162/68,Comuna 10,1407,C1407ABV,Obra Media,1577.18,BAHIA BLANCA 1162,-58.486775245396615,-34.623089582537496,BAHIA BLANCA,1162,Floresta,10
079,071,025,079-071-025,25908390/16,15-79-71-25,2018-10-19,B.BLANCA 1865,Comuna 10,1407,C1407ACI,Obra Media,653.94,BAHIA BLANCA 1865,-58.494313447646,-34.6169854523915,BAHIA BLANCA,1865,Monte Castro,10
081,053,001,081-053-001,502797/17,15-81-53-1,2019-02-04,B.BLANCA 2198,Comuna 10,1417,C1417ASB,Obra Menor,198.16,BAHIA BLANCA 2198,-58.4977249319821,-34.6140785542678,BAHIA BLANCA,2198,Monte Castro,10
081,055,037,081-055-037,28137765/18,15-81-55-37,2018-12-13,B.BLANCA 2386,Comuna 10,1417,C1417ASF,Obra Media,1328.57,BAHIA BLANCA 2386,-58.499367064918786,-34.6122551533815,BAHIA BLANCA,2386,Monte Castro,10
081,065,024,081-065-024,27523610/18,15-81-065-024,2018-11-28,B.BLANCA 3366/78,Comuna 11,1417,C1417ASZ,Micro Obra,22.8,BAHIA BLANCA 3366,-58.5072350926215,-34.6035027162572,BAHIA BLANCA,3366,Villa Devoto,11
 , , , - - ,28091604/17,,2018-01-11,B.BLANCA 4071/73,Comuna 11,1419,C1419BAI,Obra Menor,234.84,BAHIA BLANCA 4071,-58.5111566372091,-34.5990248342842,BAHIA BLANCA,4071,Villa Devoto,11
083,087,013,083-087-013,20366582/18,15-083-087-013,2018-10-29,B.BLANCA 4510,Comuna 11,1419,C1419BBD,Obra Media,698.96,BAHIA BLANCA 4510,-58.514122319773904,-34.5958789105476,BAHIA BLANCA,4510,Villa Devoto,11
046,166,011,046-166-011,30410389/17,1-46-166-11,2019-02-07,B.CENTENERA 2913/15,Comuna 4,1437,C1437ACB,Obra Menor,295.1,BARCO CENTENERA DEL 2913,-58.42482967607321,-34.65056031832389,BARCO CENTENERA DEL,2913,Nueva Pompeya,4
 , , , - - ,11561260/18,,2018-06-15,B.CENTENERA 570,Comuna 6,1424,C1424AML,Obra Mayor,2757.3,BARCO CENTENERA DEL 570,-58.440466567169,-34.6258917875494,BARCO CENTENERA DEL,570,Caballito,6
040,030,018,040-030-018,32776989/17,06-40-030-018,2017-10-27,B.CENTENERA 738/40,Comuna 6,1424,C1424AMP,Obra Mayor,2584.51,BARCO CENTENERA DEL 738,-58.43994445386461,-34.6281096122339,BARCO CENTENERA DEL,738,Caballito,6
069,085,011,069-085-011,15566783/18,15-69-85-11,2018-10-19,B.CITTADINI 2354,Comuna 11,1417,C1417HGB,Obra Media,901.25,"CITTADINI, BASILIO 2354",-58.4799798411801,-34.5997240199761,"CITTADINI, BASILIO",2354,Villa Del Parque,11
069,084,026a,069-084-026a,29932819/17,15-69-84-26a,2019-01-04,B.CITTADINI 2365/93,Comuna 11,1417,C1417HGA,Obra Mayor,7460.17,"CITTADINI, BASILIO 2365",-58.480085413611,-34.5997350421135,"CITTADINI, BASILIO",2365,Villa Del Parque,11
 , , , - - ,23547404/17,,2018-03-13,B.DE ASTRADA 2427,Comuna 8,1437,C1437FSM,Obra Menor,196.96,BERON DE ASTRADA 2427,-58.429276383430995,-34.66194249696869,BERON DE ASTRADA,2427,Villa Soldati,8
